[
  {
    "name": "Oak Park",
    "lng": -87.793783,
    "lat": 41.886988,
    "type": "rail",
    "source": "cta"
  },
  {
    "name": "Central Park",
    "lng": -87.714842,
    "lat": 41.853839,
    "type": "rail",
    "source": "cta"
  },
  {
    "name": "Granville",
    "lng": -87.659202,
    "lat": 41.993664,
    "type": "rail",
    "source": "cta"
  },
  {
    "name": "Cumberland",
    "lng": -87.838028,
    "lat": 41.984246,
    "type": "rail",
    "source": "cta"
  },
  {
    "name": "Quincy/Wells",
    "lng": -87.63374,
    "lat": 41.878723,
    "type": "rail",
    "source": "cta"
  },
  {
    "name": "O'Hare",
    "lng": -87.90422307,
    "lat": 41.97766526,
    "type": "rail",
    "source": "cta"
  },
  {
    "name": "18th",
    "lng": -87.669147,
    "lat": 41.857908,
    "type": "rail",
    "source": "cta"
  },
  {
    "name": "Clark/Lake",
    "lng": -87.630886,
    "lat": 41.885737,
    "type": "rail",
    "source": "cta"
  },
  {
    "name": "Jarvis",
    "lng": -87.669092,
    "lat": 42.015876,
    "type": "rail",
    "source": "cta"
  },
  {
    "name": "Dempster-Skokie",
    "lng": -87.751919,
    "lat": 42.038951,
    "type": "rail",
    "source": "cta"
  },
  {
    "name": "Montrose",
    "lng": -87.743574,
    "lat": 41.961539,
    "type": "rail",
    "source": "cta"
  },
  {
    "name": "Thorndale",
    "lng": -87.659076,
    "lat": 41.990259,
    "type": "rail",
    "source": "cta"
  },
  {
    "name": "35th-Bronzeville-IIT",
    "lng": -87.625826,
    "lat": 41.831677,
    "type": "rail",
    "source": "cta"
  },
  {
    "name": "Forest Park",
    "lng": -87.817318,
    "lat": 41.874257,
    "type": "rail",
    "source": "cta"
  },
  {
    "name": "Pulaski",
    "lng": -87.725404,
    "lat": 41.885412,
    "type": "rail",
    "source": "cta"
  },
  {
    "name": "South Boulevard",
    "lng": -87.678329,
    "lat": 42.027612,
    "type": "rail",
    "source": "cta"
  },
  {
    "name": "Logan Square",
    "lng": -87.708541,
    "lat": 41.929728,
    "type": "rail",
    "source": "cta"
  },
  {
    "name": "47th",
    "lng": -87.618826,
    "lat": 41.809209,
    "type": "rail",
    "source": "cta"
  },
  {
    "name": "Bryn Mawr",
    "lng": -87.65884,
    "lat": 41.983504,
    "type": "rail",
    "source": "cta"
  },
  {
    "name": "Halsted",
    "lng": -87.644244,
    "lat": 41.778943,
    "type": "rail",
    "source": "cta"
  },
  {
    "name": "Harrison",
    "lng": -87.627479,
    "lat": 41.874039,
    "type": "rail",
    "source": "cta"
  },
  {
    "name": "Kedzie",
    "lng": -87.704406,
    "lat": 41.804236,
    "type": "rail",
    "source": "cta"
  },
  {
    "name": "Kimball",
    "lng": -87.713065,
    "lat": 41.967901,
    "type": "rail",
    "source": "cta"
  },
  {
    "name": "Ashland/63rd",
    "lng": -87.663766,
    "lat": 41.77886,
    "type": "rail",
    "source": "cta"
  },
  {
    "name": "95th/Dan Ryan",
    "lng": -87.624342,
    "lat": 41.722377,
    "type": "rail",
    "source": "cta"
  },
  {
    "name": "Western",
    "lng": -87.688502,
    "lat": 41.966163,
    "type": "rail",
    "source": "cta"
  },
  {
    "name": "Wilson",
    "lng": -87.657588,
    "lat": 41.964273,
    "type": "rail",
    "source": "cta"
  },
  {
    "name": "Armitage",
    "lng": -87.652644,
    "lat": 41.918217,
    "type": "rail",
    "source": "cta"
  },
  {
    "name": "Roosevelt",
    "lng": -87.627402,
    "lat": 41.867368,
    "type": "rail",
    "source": "cta"
  },
  {
    "name": "Belmont",
    "lng": -87.712359,
    "lat": 41.938132,
    "type": "rail",
    "source": "cta"
  },
  {
    "name": "54th/Cermak",
    "lng": -87.75669201,
    "lat": 41.85177331,
    "type": "rail",
    "source": "cta"
  },
  {
    "name": "Davis",
    "lng": -87.683543,
    "lat": 42.04771,
    "type": "rail",
    "source": "cta"
  },
  {
    "name": "Francisco",
    "lng": -87.701644,
    "lat": 41.966046,
    "type": "rail",
    "source": "cta"
  },
  {
    "name": "LaSalle/Van Buren",
    "lng": -87.631739,
    "lat": 41.8768,
    "type": "rail",
    "source": "cta"
  },
  {
    "name": "Howard",
    "lng": -87.672892,
    "lat": 42.019063,
    "type": "rail",
    "source": "cta"
  },
  {
    "name": "Kostner",
    "lng": -87.733258,
    "lat": 41.853751,
    "type": "rail",
    "source": "cta"
  },
  {
    "name": "79th",
    "lng": -87.625112,
    "lat": 41.750419,
    "type": "rail",
    "source": "cta"
  },
  {
    "name": "Austin",
    "lng": -87.776812,
    "lat": 41.870851,
    "type": "rail",
    "source": "cta"
  },
  {
    "name": "Clinton",
    "lng": -87.641782,
    "lat": 41.885678,
    "type": "rail",
    "source": "cta"
  },
  {
    "name": "Washington/Wells",
    "lng": -87.63378,
    "lat": 41.882695,
    "type": "rail",
    "source": "cta"
  },
  {
    "name": "Western",
    "lng": -87.687364,
    "lat": 41.916157,
    "type": "rail",
    "source": "cta"
  },
  {
    "name": "Chicago",
    "lng": -87.628176,
    "lat": 41.896671,
    "type": "rail",
    "source": "cta"
  },
  {
    "name": "Rosemont",
    "lng": -87.859388,
    "lat": 41.983507,
    "type": "rail",
    "source": "cta"
  },
  {
    "name": "Addison",
    "lng": -87.653626,
    "lat": 41.947428,
    "type": "rail",
    "source": "cta"
  },
  {
    "name": "Montrose",
    "lng": -87.675047,
    "lat": 41.961756,
    "type": "rail",
    "source": "cta"
  },
  {
    "name": "Irving Park",
    "lng": -87.729229,
    "lat": 41.952925,
    "type": "rail",
    "source": "cta"
  },
  {
    "name": "Kedzie",
    "lng": -87.706155,
    "lat": 41.884321,
    "type": "rail",
    "source": "cta"
  },
  {
    "name": "Midway",
    "lng": -87.737875,
    "lat": 41.78661,
    "type": "rail",
    "source": "cta"
  },
  {
    "name": "Ridgeland",
    "lng": -87.783661,
    "lat": 41.887159,
    "type": "rail",
    "source": "cta"
  },
  {
    "name": "Damen",
    "lng": -87.677437,
    "lat": 41.909744,
    "type": "rail",
    "source": "cta"
  },
  {
    "name": "Polk",
    "lng": -87.66953,
    "lat": 41.871551,
    "type": "rail",
    "source": "cta"
  },
  {
    "name": "Cicero",
    "lng": -87.745154,
    "lat": 41.871574,
    "type": "rail",
    "source": "cta"
  },
  {
    "name": "Harlem",
    "lng": -87.806961,
    "lat": 41.87349,
    "type": "rail",
    "source": "cta"
  },
  {
    "name": "Washington",
    "lng": -87.62944,
    "lat": 41.883164,
    "type": "rail",
    "source": "cta"
  },
  {
    "name": "California",
    "lng": -87.696234,
    "lat": 41.88422,
    "type": "rail",
    "source": "cta"
  },
  {
    "name": "Morgan",
    "lng": -87.652193,
    "lat": 41.885586,
    "type": "rail",
    "source": "cta"
  },
  {
    "name": "Western",
    "lng": -87.688436,
    "lat": 41.875478,
    "type": "rail",
    "source": "cta"
  },
  {
    "name": "Garfield",
    "lng": -87.631157,
    "lat": 41.79542,
    "type": "rail",
    "source": "cta"
  },
  {
    "name": "Diversey",
    "lng": -87.653131,
    "lat": 41.932732,
    "type": "rail",
    "source": "cta"
  },
  {
    "name": "Pulaski",
    "lng": -87.725663,
    "lat": 41.873797,
    "type": "rail",
    "source": "cta"
  },
  {
    "name": "Sheridan",
    "lng": -87.654929,
    "lat": 41.953775,
    "type": "rail",
    "source": "cta"
  },
  {
    "name": "Chicago",
    "lng": -87.635924,
    "lat": 41.89681,
    "type": "rail",
    "source": "cta"
  },
  {
    "name": "Main",
    "lng": -87.679538,
    "lat": 42.033456,
    "type": "rail",
    "source": "cta"
  },
  {
    "name": "Western",
    "lng": -87.684019,
    "lat": 41.804546,
    "type": "rail",
    "source": "cta"
  },
  {
    "name": "Oakton-Skokie",
    "lng": -87.74722084,
    "lat": 42.02624348,
    "type": "rail",
    "source": "cta"
  },
  {
    "name": "43rd",
    "lng": -87.619021,
    "lat": 41.816462,
    "type": "rail",
    "source": "cta"
  },
  {
    "name": "California",
    "lng": -87.69689,
    "lat": 41.921939,
    "type": "rail",
    "source": "cta"
  },
  {
    "name": "Southport",
    "lng": -87.663619,
    "lat": 41.943744,
    "type": "rail",
    "source": "cta"
  },
  {
    "name": "Cicero",
    "lng": -87.744698,
    "lat": 41.886519,
    "type": "rail",
    "source": "cta"
  },
  {
    "name": "Linden",
    "lng": -87.69073,
    "lat": 42.073153,
    "type": "rail",
    "source": "cta"
  },
  {
    "name": "Damen",
    "lng": -87.67689149,
    "lat": 41.88497405,
    "type": "rail",
    "source": "cta"
  },
  {
    "name": "Addison",
    "lng": -87.674642,
    "lat": 41.947028,
    "type": "rail",
    "source": "cta"
  },
  {
    "name": "Ashland",
    "lng": -87.666969,
    "lat": 41.885269,
    "type": "rail",
    "source": "cta"
  },
  {
    "name": "Indiana",
    "lng": -87.621371,
    "lat": 41.821732,
    "type": "rail",
    "source": "cta"
  },
  {
    "name": "Western",
    "lng": -87.685129,
    "lat": 41.854225,
    "type": "rail",
    "source": "cta"
  },
  {
    "name": "Cermak-Chinatown",
    "lng": -87.630968,
    "lat": 41.853206,
    "type": "rail",
    "source": "cta"
  },
  {
    "name": "Laramie",
    "lng": -87.754986,
    "lat": 41.887163,
    "type": "rail",
    "source": "cta"
  },
  {
    "name": "State/Lake",
    "lng": -87.627835,
    "lat": 41.88574,
    "type": "rail",
    "source": "cta"
  },
  {
    "name": "Grand",
    "lng": -87.628021,
    "lat": 41.891665,
    "type": "rail",
    "source": "cta"
  },
  {
    "name": "Irving Park",
    "lng": -87.674868,
    "lat": 41.954521,
    "type": "rail",
    "source": "cta"
  },
  {
    "name": "Addison",
    "lng": -87.71906,
    "lat": 41.94738,
    "type": "rail",
    "source": "cta"
  },
  {
    "name": "Clinton",
    "lng": -87.640984,
    "lat": 41.875539,
    "type": "rail",
    "source": "cta"
  },
  {
    "name": "Oak Park",
    "lng": -87.791602,
    "lat": 41.872108,
    "type": "rail",
    "source": "cta"
  },
  {
    "name": "Central",
    "lng": -87.76565,
    "lat": 41.887389,
    "type": "rail",
    "source": "cta"
  },
  {
    "name": "Conservatory",
    "lng": -87.716523,
    "lat": 41.884904,
    "type": "rail",
    "source": "cta"
  },
  {
    "name": "North/Clybourn",
    "lng": -87.649177,
    "lat": 41.910655,
    "type": "rail",
    "source": "cta"
  },
  {
    "name": "47th",
    "lng": -87.63094,
    "lat": 41.810318,
    "type": "rail",
    "source": "cta"
  },
  {
    "name": "Belmont",
    "lng": -87.65338,
    "lat": 41.939751,
    "type": "rail",
    "source": "cta"
  },
  {
    "name": "Jackson",
    "lng": -87.629296,
    "lat": 41.878183,
    "type": "rail",
    "source": "cta"
  },
  {
    "name": "Chicago",
    "lng": -87.655214,
    "lat": 41.896075,
    "type": "rail",
    "source": "cta"
  },
  {
    "name": "Monroe",
    "lng": -87.627696,
    "lat": 41.880745,
    "type": "rail",
    "source": "cta"
  },
  {
    "name": "Jefferson Park",
    "lng": -87.760892,
    "lat": 41.970634,
    "type": "rail",
    "source": "cta"
  },
  {
    "name": "51st",
    "lng": -87.618487,
    "lat": 41.80209,
    "type": "rail",
    "source": "cta"
  },
  {
    "name": "Fullerton",
    "lng": -87.652866,
    "lat": 41.925051,
    "type": "rail",
    "source": "cta"
  },
  {
    "name": "Grand",
    "lng": -87.647578,
    "lat": 41.891189,
    "type": "rail",
    "source": "cta"
  },
  {
    "name": "Cermak-McCormick Place",
    "lng": -87.626402,
    "lat": 41.853115,
    "type": "rail",
    "source": "cta"
  },
  {
    "name": "Paulina",
    "lng": -87.670907,
    "lat": 41.943623,
    "type": "rail",
    "source": "cta"
  },
  {
    "name": "Damen",
    "lng": -87.675975,
    "lat": 41.854517,
    "type": "rail",
    "source": "cta"
  },
  {
    "name": "Pulaski",
    "lng": -87.724311,
    "lat": 41.853732,
    "type": "rail",
    "source": "cta"
  },
  {
    "name": "35th/Archer",
    "lng": -87.680622,
    "lat": 41.829353,
    "type": "rail",
    "source": "cta"
  },
  {
    "name": "Loyola",
    "lng": -87.661061,
    "lat": 42.001073,
    "type": "rail",
    "source": "cta"
  },
  {
    "name": "Jackson",
    "lng": -87.627596,
    "lat": 41.878153,
    "type": "rail",
    "source": "cta"
  },
  {
    "name": "Argyle",
    "lng": -87.65853,
    "lat": 41.973453,
    "type": "rail",
    "source": "cta"
  },
  {
    "name": "Harlem/Lake",
    "lng": -87.803176,
    "lat": 41.886848,
    "type": "rail",
    "source": "cta"
  },
  {
    "name": "UIC-Halsted",
    "lng": -87.649707,
    "lat": 41.875474,
    "type": "rail",
    "source": "cta"
  },
  {
    "name": "63rd",
    "lng": -87.630952,
    "lat": 41.780536,
    "type": "rail",
    "source": "cta"
  },
  {
    "name": "Lake",
    "lng": -87.627813,
    "lat": 41.884809,
    "type": "rail",
    "source": "cta"
  },
  {
    "name": "87th",
    "lng": -87.624717,
    "lat": 41.735372,
    "type": "rail",
    "source": "cta"
  },
  {
    "name": "Austin",
    "lng": -87.774135,
    "lat": 41.887293,
    "type": "rail",
    "source": "cta"
  },
  {
    "name": "Wellington",
    "lng": -87.653266,
    "lat": 41.936033,
    "type": "rail",
    "source": "cta"
  },
  {
    "name": "Division",
    "lng": -87.666496,
    "lat": 41.903355,
    "type": "rail",
    "source": "cta"
  },
  {
    "name": "Adams/Wabash",
    "lng": -87.626037,
    "lat": 41.879507,
    "type": "rail",
    "source": "cta"
  },
  {
    "name": "Berwyn",
    "lng": -87.658668,
    "lat": 41.977984,
    "type": "rail",
    "source": "cta"
  },
  {
    "name": "Harlem",
    "lng": -87.8089,
    "lat": 41.98227,
    "type": "rail",
    "source": "cta"
  },
  {
    "name": "Kedzie",
    "lng": -87.705408,
    "lat": 41.853964,
    "type": "rail",
    "source": "cta"
  },
  {
    "name": "Clark/Division",
    "lng": -87.631412,
    "lat": 41.90392,
    "type": "rail",
    "source": "cta"
  },
  {
    "name": "Illinois Medical District",
    "lng": -87.673932,
    "lat": 41.875706,
    "type": "rail",
    "source": "cta"
  },
  {
    "name": "King Drive",
    "lng": -87.615546,
    "lat": 41.78013,
    "type": "rail",
    "source": "cta"
  },
  {
    "name": "Dempster",
    "lng": -87.681602,
    "lat": 42.041655,
    "type": "rail",
    "source": "cta"
  },
  {
    "name": "Pulaski",
    "lng": -87.724493,
    "lat": 41.799756,
    "type": "rail",
    "source": "cta"
  },
  {
    "name": "Ashland",
    "lng": -87.665317,
    "lat": 41.839234,
    "type": "rail",
    "source": "cta"
  },
  {
    "name": "Cottage Grove",
    "lng": -87.605857,
    "lat": 41.780309,
    "type": "rail",
    "source": "cta"
  },
  {
    "name": "Merchandise Mart",
    "lng": -87.633924,
    "lat": 41.888969,
    "type": "rail",
    "source": "cta"
  },
  {
    "name": "Damen",
    "lng": -87.678639,
    "lat": 41.966286,
    "type": "rail",
    "source": "cta"
  },
  {
    "name": "Halsted",
    "lng": -87.648088,
    "lat": 41.84678,
    "type": "rail",
    "source": "cta"
  },
  {
    "name": "Central",
    "lng": -87.685617,
    "lat": 42.063987,
    "type": "rail",
    "source": "cta"
  },
  {
    "name": "Racine",
    "lng": -87.659458,
    "lat": 41.87592,
    "type": "rail",
    "source": "cta"
  },
  {
    "name": "Lawrence",
    "lng": -87.658493,
    "lat": 41.969139,
    "type": "rail",
    "source": "cta"
  },
  {
    "name": "Garfield",
    "lng": -87.618327,
    "lat": 41.795172,
    "type": "rail",
    "source": "cta"
  },
  {
    "name": "Morse",
    "lng": -87.665909,
    "lat": 42.008362,
    "type": "rail",
    "source": "cta"
  },
  {
    "name": "Noyes",
    "lng": -87.683337,
    "lat": 42.058282,
    "type": "rail",
    "source": "cta"
  },
  {
    "name": "Cicero",
    "lng": -87.745336,
    "lat": 41.85182,
    "type": "rail",
    "source": "cta"
  },
  {
    "name": "Rockwell",
    "lng": -87.6941,
    "lat": 41.966115,
    "type": "rail",
    "source": "cta"
  },
  {
    "name": "Foster",
    "lng": -87.68356,
    "lat": 42.05416,
    "type": "rail",
    "source": "cta"
  },
  {
    "name": "LaSalle",
    "lng": -87.631722,
    "lat": 41.875568,
    "type": "rail",
    "source": "cta"
  },
  {
    "name": "California",
    "lng": -87.694774,
    "lat": 41.854109,
    "type": "rail",
    "source": "cta"
  },
  {
    "name": "69th",
    "lng": -87.625724,
    "lat": 41.768367,
    "type": "rail",
    "source": "cta"
  },
  {
    "name": "Washington/Wabash",
    "lng": -87.626189,
    "lat": 41.88322,
    "type": "rail",
    "source": "cta"
  },
  {
    "name": "Harold Washington Library-State/Van Buren",
    "lng": -87.628196,
    "lat": 41.876862,
    "type": "rail",
    "source": "cta"
  },
  {
    "name": "Sedgwick",
    "lng": -87.639302,
    "lat": 41.910409,
    "type": "rail",
    "source": "cta"
  },
  {
    "name": "Kedzie-Homan",
    "lng": -87.70604,
    "lat": 41.874341,
    "type": "rail",
    "source": "cta"
  },
  {
    "name": "Kedzie",
    "lng": -87.708821,
    "lat": 41.965996,
    "type": "rail",
    "source": "cta"
  },
  {
    "name": "Sox-35th",
    "lng": -87.630636,
    "lat": 41.831191,
    "type": "rail",
    "source": "cta"
  },
  {
    "name": "Monroe",
    "lng": -87.629378,
    "lat": 41.880703,
    "type": "rail",
    "source": "cta"
  },
  {
    "name": "Stone Avenue",
    "lng": -87.8779199,
    "lat": 41.814332,
    "type": "rail",
    "source": "metra"
  },
  {
    "name": "Riverside",
    "lng": -87.8211072,
    "lat": 41.8271084,
    "type": "rail",
    "source": "metra"
  },
  {
    "name": "Berwyn",
    "lng": -87.7934768,
    "lat": 41.8333118,
    "type": "rail",
    "source": "metra"
  },
  {
    "name": "Cicero",
    "lng": -87.7461185,
    "lat": 41.8441269,
    "type": "rail",
    "source": "metra"
  },
  {
    "name": "Ivanhoe",
    "lng": -87.630569,
    "lat": 41.6330687,
    "type": "rail",
    "source": "metra"
  },
  {
    "name": "Halsted Street",
    "lng": -87.6473136,
    "lat": 41.8604155,
    "type": "rail",
    "source": "metra"
  },
  {
    "name": "Kedzie",
    "lng": -87.7069025,
    "lat": 41.8882254,
    "type": "rail",
    "source": "metra"
  },
  {
    "name": "Oak Park",
    "lng": -87.8015615,
    "lat": 41.8870626,
    "type": "rail",
    "source": "metra"
  },
  {
    "name": "Melrose Park",
    "lng": -87.8556922,
    "lat": 41.8902129,
    "type": "rail",
    "source": "metra"
  },
  {
    "name": "Bellwood",
    "lng": -87.8808063,
    "lat": 41.8913674,
    "type": "rail",
    "source": "metra"
  },
  {
    "name": "Berkeley",
    "lng": -87.9152778,
    "lat": 41.8961111,
    "type": "rail",
    "source": "metra"
  },
  {
    "name": "Clybourn",
    "lng": -87.6681783,
    "lat": 41.9170269,
    "type": "rail",
    "source": "metra"
  },
  {
    "name": "Rogers Park",
    "lng": -87.6755503,
    "lat": 42.009574,
    "type": "rail",
    "source": "metra"
  },
  {
    "name": "Gladstone Park",
    "lng": -87.7777196,
    "lat": 41.9796031,
    "type": "rail",
    "source": "metra"
  },
  {
    "name": "Western Avenue",
    "lng": -87.6850211,
    "lat": 41.8577983,
    "type": "rail",
    "source": "metra"
  },
  {
    "name": "Museum Campus/11th Street",
    "lng": -87.6216823,
    "lat": 41.8689956,
    "type": "rail",
    "source": "metra"
  },
  {
    "name": "Stony Island",
    "lng": -87.587881,
    "lat": 41.766049,
    "type": "rail",
    "source": "metra"
  },
  {
    "name": "Bryn Mawr",
    "lng": -87.5776266,
    "lat": 41.7661442,
    "type": "rail",
    "source": "metra"
  },
  {
    "name": "South Shore",
    "lng": -87.5656394,
    "lat": 41.7651609,
    "type": "rail",
    "source": "metra"
  },
  {
    "name": "Windsor Park",
    "lng": -87.559267,
    "lat": 41.7582586,
    "type": "rail",
    "source": "metra"
  },
  {
    "name": "79th Street (Cheltenham)",
    "lng": -87.5533724,
    "lat": 41.752789,
    "type": "rail",
    "source": "metra"
  },
  {
    "name": "83rd Street (South Chicago)",
    "lng": -87.5515695,
    "lat": 41.7457139,
    "type": "rail",
    "source": "metra"
  },
  {
    "name": "87th Street (South Chicago)",
    "lng": -87.5483328,
    "lat": 41.7385005,
    "type": "rail",
    "source": "metra"
  },
  {
    "name": "93rd Street (South Chicago)",
    "lng": -87.5477847,
    "lat": 41.7273766,
    "type": "rail",
    "source": "metra"
  },
  {
    "name": "Gresham",
    "lng": -87.6446465,
    "lat": 41.7366279,
    "type": "rail",
    "source": "metra"
  },
  {
    "name": "Brainerd",
    "lng": -87.65896,
    "lat": 41.7321231,
    "type": "rail",
    "source": "metra"
  },
  {
    "name": "91st Street (Beverly Hills)",
    "lng": -87.6671729,
    "lat": 41.727968,
    "type": "rail",
    "source": "metra"
  },
  {
    "name": "95th Street (Beverly Hills)",
    "lng": -87.6675082,
    "lat": 41.7214304,
    "type": "rail",
    "source": "metra"
  },
  {
    "name": "Blue Island (Vermont Street)",
    "lng": -87.6777671,
    "lat": 41.6548441,
    "type": "rail",
    "source": "metra"
  },
  {
    "name": "Blue Island",
    "lng": -87.6761068,
    "lat": 41.6558511,
    "type": "rail",
    "source": "metra"
  },
  {
    "name": "111th Street (Morgan Park)",
    "lng": -87.6705457,
    "lat": 41.6925678,
    "type": "rail",
    "source": "metra"
  },
  {
    "name": "115th Street (Morgan Park)",
    "lng": -87.6714035,
    "lat": 41.6853976,
    "type": "rail",
    "source": "metra"
  },
  {
    "name": "119th Street",
    "lng": -87.6726266,
    "lat": 41.67643,
    "type": "rail",
    "source": "metra"
  },
  {
    "name": "99th Street (Beverly Hills)",
    "lng": -87.6673158,
    "lat": 41.7136695,
    "type": "rail",
    "source": "metra"
  },
  {
    "name": "103rd Street (Beverly Hills)",
    "lng": -87.6688917,
    "lat": 41.7061682,
    "type": "rail",
    "source": "metra"
  },
  {
    "name": "107th Street (Beverly Hills)",
    "lng": -87.6697797,
    "lat": 41.6988629,
    "type": "rail",
    "source": "metra"
  },
  {
    "name": "Ashland Avenue",
    "lng": -87.6606519,
    "lat": 41.669294,
    "type": "rail",
    "source": "metra"
  },
  {
    "name": "West Pullman",
    "lng": -87.6422103,
    "lat": 41.6741585,
    "type": "rail",
    "source": "metra"
  },
  {
    "name": "State Street",
    "lng": -87.6211402,
    "lat": 41.6744501,
    "type": "rail",
    "source": "metra"
  },
  {
    "name": "Summit",
    "lng": -87.8092437,
    "lat": 41.7952643,
    "type": "rail",
    "source": "metra"
  },
  {
    "name": "Grayland",
    "lng": -87.7392852,
    "lat": 41.9467973,
    "type": "rail",
    "source": "metra"
  },
  {
    "name": "Galewood",
    "lng": -87.7864547,
    "lat": 41.9165374,
    "type": "rail",
    "source": "metra"
  },
  {
    "name": "Wrightwood",
    "lng": -87.7035753,
    "lat": 41.7489324,
    "type": "rail",
    "source": "metra"
  },
  {
    "name": "Congress Park",
    "lng": -87.8573342,
    "lat": 41.8189621,
    "type": "rail",
    "source": "metra"
  },
  {
    "name": "Mont Clare",
    "lng": -87.8016081,
    "lat": 41.9218485,
    "type": "rail",
    "source": "metra"
  },
  {
    "name": "Midlothian",
    "lng": -87.7123775,
    "lat": 41.6260384,
    "type": "rail",
    "source": "metra"
  },
  {
    "name": "McCormick Place",
    "lng": -87.6164754,
    "lat": 41.851689,
    "type": "rail",
    "source": "metra"
  },
  {
    "name": "51st-53rd Street (Hyde Park)",
    "lng": -87.5871893,
    "lat": 41.8014328,
    "type": "rail",
    "source": "metra"
  },
  {
    "name": "55th-56th-57th Street",
    "lng": -87.5877553,
    "lat": 41.7925061,
    "type": "rail",
    "source": "metra"
  },
  {
    "name": "59th Street (University of Chicago)",
    "lng": -87.5889215,
    "lat": 41.7873718,
    "type": "rail",
    "source": "metra"
  },
  {
    "name": "111th Street (Pullman)",
    "lng": -87.6104668,
    "lat": 41.6929315,
    "type": "rail",
    "source": "metra"
  },
  {
    "name": "Kensington (115th Street)",
    "lng": -87.6120907,
    "lat": 41.6861072,
    "type": "rail",
    "source": "metra"
  },
  {
    "name": "Harvey",
    "lng": -87.6434056,
    "lat": 41.6090848,
    "type": "rail",
    "source": "metra"
  },
  {
    "name": "Hollywood",
    "lng": -87.8331829,
    "lat": 41.8243929,
    "type": "rail",
    "source": "metra"
  },
  {
    "name": "Edgebrook",
    "lng": -87.7659761,
    "lat": 41.998269,
    "type": "rail",
    "source": "metra"
  },
  {
    "name": "Forest Glen",
    "lng": -87.7556004,
    "lat": 41.9783314,
    "type": "rail",
    "source": "metra"
  },
  {
    "name": "Rosemont",
    "lng": -87.8737692,
    "lat": 41.9755801,
    "type": "rail",
    "source": "metra"
  },
  {
    "name": "Schiller Park",
    "lng": -87.8704542,
    "lat": 41.9624031,
    "type": "rail",
    "source": "metra"
  },
  {
    "name": "Irving Park",
    "lng": -87.7304356,
    "lat": 41.9528048,
    "type": "rail",
    "source": "metra"
  },
  {
    "name": "LaVergne",
    "lng": -87.7839739,
    "lat": 41.8354515,
    "type": "rail",
    "source": "metra"
  },
  {
    "name": "Willow Springs",
    "lng": -87.8779237,
    "lat": 41.7338397,
    "type": "rail",
    "source": "metra"
  },
  {
    "name": "143rd Street (Orland Park)",
    "lng": -87.85685,
    "lat": 41.6328981,
    "type": "rail",
    "source": "metra"
  },
  {
    "name": "Palos Heights",
    "lng": -87.8072438,
    "lat": 41.6818973,
    "type": "rail",
    "source": "metra"
  },
  {
    "name": "Worth",
    "lng": -87.7958129,
    "lat": 41.6916019,
    "type": "rail",
    "source": "metra"
  },
  {
    "name": "Jefferson Park",
    "lng": -87.7625262,
    "lat": 41.971018,
    "type": "rail",
    "source": "metra"
  },
  {
    "name": "Park Ridge",
    "lng": -87.8320036,
    "lat": 42.0102764,
    "type": "rail",
    "source": "metra"
  },
  {
    "name": "Chicago Union Station",
    "lng": -87.6390928,
    "lat": 41.8786411,
    "type": "rail",
    "source": "metra"
  },
  {
    "name": "Morton Grove",
    "lng": -87.7851955,
    "lat": 42.0349481,
    "type": "rail",
    "source": "metra"
  },
  {
    "name": "O'Hare Transfer",
    "lng": -87.8804365,
    "lat": 41.9950706,
    "type": "rail",
    "source": "metra"
  },
  {
    "name": "95th Street (Longwood)",
    "lng": -87.6502363,
    "lat": 41.721194,
    "type": "rail",
    "source": "metra"
  },
  {
    "name": "Ravenswood",
    "lng": -87.6744751,
    "lat": 41.9679199,
    "type": "rail",
    "source": "metra"
  },
  {
    "name": "Brookfield",
    "lng": -87.8427031,
    "lat": 41.8222654,
    "type": "rail",
    "source": "metra"
  },
  {
    "name": "Highlands",
    "lng": -87.9178875,
    "lat": 41.805321,
    "type": "rail",
    "source": "metra"
  },
  {
    "name": "LaGrange Road",
    "lng": -87.8710522,
    "lat": 41.8158916,
    "type": "rail",
    "source": "metra"
  },
  {
    "name": "Hinsdale",
    "lng": -87.9282692,
    "lat": 41.8029915,
    "type": "rail",
    "source": "metra"
  },
  {
    "name": "Millennium Station",
    "lng": -87.6236902,
    "lat": 41.884409,
    "type": "rail",
    "source": "metra"
  },
  {
    "name": "Van Buren Street",
    "lng": -87.6229217,
    "lat": 41.8769281,
    "type": "rail",
    "source": "metra"
  },
  {
    "name": "63rd Street",
    "lng": -87.5906923,
    "lat": 41.7795949,
    "type": "rail",
    "source": "metra"
  },
  {
    "name": "Riverdale",
    "lng": -87.6238312,
    "lat": 41.6456503,
    "type": "rail",
    "source": "metra"
  },
  {
    "name": "147th Street (Sibley Boulevard)",
    "lng": -87.6359224,
    "lat": 41.6231,
    "type": "rail",
    "source": "metra"
  },
  {
    "name": "Stewart Ridge",
    "lng": -87.6315893,
    "lat": 41.6743483,
    "type": "rail",
    "source": "metra"
  },
  {
    "name": "Racine Avenue",
    "lng": -87.652017,
    "lat": 41.6740513,
    "type": "rail",
    "source": "metra"
  },
  {
    "name": "Burr Oak",
    "lng": -87.6688693,
    "lat": 41.6622374,
    "type": "rail",
    "source": "metra"
  },
  {
    "name": "Harlem Avenue",
    "lng": -87.8010905,
    "lat": 41.8316102,
    "type": "rail",
    "source": "metra"
  },
  {
    "name": "Palos Park",
    "lng": -87.8201814,
    "lat": 41.6692023,
    "type": "rail",
    "source": "metra"
  },
  {
    "name": "153rd Street (Orland Park)",
    "lng": -87.8734171,
    "lat": 41.6095575,
    "type": "rail",
    "source": "metra"
  },
  {
    "name": "Chicago Ridge",
    "lng": -87.7805909,
    "lat": 41.7032948,
    "type": "rail",
    "source": "metra"
  },
  {
    "name": "Oak Lawn",
    "lng": -87.7491924,
    "lat": 41.7193529,
    "type": "rail",
    "source": "metra"
  },
  {
    "name": "Ashburn",
    "lng": -87.7133617,
    "lat": 41.7411782,
    "type": "rail",
    "source": "metra"
  },
  {
    "name": "103rd Street (Washington Heights)",
    "lng": -87.6559311,
    "lat": 41.7055956,
    "type": "rail",
    "source": "metra"
  },
  {
    "name": "Oak Forest",
    "lng": -87.7384192,
    "lat": 41.604505,
    "type": "rail",
    "source": "metra"
  },
  {
    "name": "Maywood",
    "lng": -87.8386653,
    "lat": 41.8883252,
    "type": "rail",
    "source": "metra"
  },
  {
    "name": "Elmwood Park",
    "lng": -87.8148281,
    "lat": 41.9249445,
    "type": "rail",
    "source": "metra"
  },
  {
    "name": "Norwood Park",
    "lng": -87.7987466,
    "lat": 41.9914994,
    "type": "rail",
    "source": "metra"
  },
  {
    "name": "Franklin Park",
    "lng": -87.8664945,
    "lat": 41.9365028,
    "type": "rail",
    "source": "metra"
  },
  {
    "name": "Belmont Avenue (Franklin Park)",
    "lng": -87.8603898,
    "lat": 41.9387719,
    "type": "rail",
    "source": "metra"
  },
  {
    "name": "River Grove",
    "lng": -87.8370917,
    "lat": 41.9311435,
    "type": "rail",
    "source": "metra"
  },
  {
    "name": "LaSalle Street Station",
    "lng": -87.6322131,
    "lat": 41.8751574,
    "type": "rail",
    "source": "metra"
  },
  {
    "name": "Ogilvie Transportation Center",
    "lng": -87.6405272,
    "lat": 41.8837873,
    "type": "rail",
    "source": "metra"
  },
  {
    "name": "Western Avenue",
    "lng": -87.6882106,
    "lat": 41.8891862,
    "type": "rail",
    "source": "metra"
  },
  {
    "name": "River Forest",
    "lng": -87.8245908,
    "lat": 41.8868297,
    "type": "rail",
    "source": "metra"
  },
  {
    "name": "Evanston Davis Street",
    "lng": -87.6846476,
    "lat": 42.0477473,
    "type": "rail",
    "source": "metra"
  },
  {
    "name": "Evanston Main Street",
    "lng": -87.6801009,
    "lat": 42.0333836,
    "type": "rail",
    "source": "metra"
  },
  {
    "name": "Des Plaines",
    "lng": -87.887006,
    "lat": 42.0409861,
    "type": "rail",
    "source": "metra"
  },
  {
    "name": "Dee Road",
    "lng": -87.8566039,
    "lat": 42.0241751,
    "type": "rail",
    "source": "metra"
  },
  {
    "name": "Edison Park",
    "lng": -87.8181912,
    "lat": 42.0025075,
    "type": "rail",
    "source": "metra"
  },
  {
    "name": "Healy",
    "lng": -87.7280476,
    "lat": 41.9251139,
    "type": "rail",
    "source": "metra"
  },
  {
    "name": "Western Springs",
    "lng": -87.9011315,
    "lat": 41.8089648,
    "type": "rail",
    "source": "metra"
  },
  {
    "name": "Mayfair",
    "lng": -87.7462096,
    "lat": 41.9602287,
    "type": "rail",
    "source": "metra"
  },
  {
    "name": "Peterson/Ridge",
    "lng": -87.6750422,
    "lat": 41.9914259,
    "type": "rail",
    "source": "metra"
  },
  {
    "name": "Bus 106 / 103rd Street & Michigan",
    "lng": -87.61997029,
    "lat": 41.70716518,
    "type": "bus",
    "route": "106"
  },
  {
    "name": "Bus 106 / 103rd Street & King Drive",
    "lng": -87.61338998,
    "lat": 41.70726294,
    "type": "bus",
    "route": "106"
  },
  {
    "name": "Bus 106 / 103rd Street & Michigan",
    "lng": -87.62004691,
    "lat": 41.70729414,
    "type": "bus",
    "route": "106"
  },
  {
    "name": "Bus 106 / 103rd Street & Eberhart",
    "lng": -87.61144319,
    "lat": 41.70729593,
    "type": "bus",
    "route": "106"
  },
  {
    "name": "Bus 106 / 103rd Street & Indiana",
    "lng": -87.61853392,
    "lat": 41.70731109,
    "type": "bus",
    "route": "106"
  },
  {
    "name": "Bus 106 / 103rd Street & St. Lawrence",
    "lng": -87.60899813,
    "lat": 41.7073328,
    "type": "bus",
    "route": "106"
  },
  {
    "name": "Bus 106 / 103rd Street & Forest",
    "lng": -87.61609547,
    "lat": 41.70734888,
    "type": "bus",
    "route": "106"
  },
  {
    "name": "Bus 106 / 103rd Street & Cottage Grove",
    "lng": -87.60615409,
    "lat": 41.70738775,
    "type": "bus",
    "route": "106"
  },
  {
    "name": "Bus 106 / 103rd Street & King Drive",
    "lng": -87.61362767,
    "lat": 41.7073921,
    "type": "bus",
    "route": "106"
  },
  {
    "name": "Bus 106 / 103rd Street & Corliss",
    "lng": -87.6034872,
    "lat": 41.70744364,
    "type": "bus",
    "route": "106"
  },
  {
    "name": "Bus 106 / 1100 E 103rd Street",
    "lng": -87.5966121,
    "lat": 41.70753989,
    "type": "bus",
    "route": "106"
  },
  {
    "name": "Bus 106 / 103rd Street & Corliss",
    "lng": -87.60395998,
    "lat": 41.70756175,
    "type": "bus",
    "route": "106"
  },
  {
    "name": "Bus 106 / 1100 E 103rd Street",
    "lng": -87.59593908,
    "lat": 41.70768465,
    "type": "bus",
    "route": "106"
  },
  {
    "name": "Bus 106 / 103rd Street & Stony Island Garage Terminal",
    "lng": -87.58117504,
    "lat": 41.70854102,
    "type": "bus",
    "route": "106"
  },
  {
    "name": "Bus 106 / Michigan & 102nd Street",
    "lng": -87.61986268,
    "lat": 41.70898957,
    "type": "bus",
    "route": "106"
  },
  {
    "name": "Bus 106 / Olive-Harvey College",
    "lng": -87.58921354,
    "lat": 41.70942381,
    "type": "bus",
    "route": "106"
  },
  {
    "name": "Bus 106 / Michigan & 101st Street",
    "lng": -87.61981554,
    "lat": 41.71074462,
    "type": "bus",
    "route": "106"
  },
  {
    "name": "Bus 106 / Michigan & 98th Street",
    "lng": -87.62033868,
    "lat": 41.7162914,
    "type": "bus",
    "route": "106"
  },
  {
    "name": "Bus 106 / 95th Red Line Station",
    "lng": -87.62461773,
    "lat": 41.72087583,
    "type": "bus",
    "route": "106"
  },
  {
    "name": "Bus 108 / Carver High School",
    "lng": -87.59098233,
    "lat": 41.65628664,
    "type": "bus",
    "route": "108"
  },
  {
    "name": "Bus 108 / 130th Street & Daniel Drive",
    "lng": -87.6152057,
    "lat": 41.65902708,
    "type": "bus",
    "route": "108"
  },
  {
    "name": "Bus 108 / Vermont & Halsted",
    "lng": -87.64112168,
    "lat": 41.66204575,
    "type": "bus",
    "route": "108"
  },
  {
    "name": "Bus 108 / 127th Street & Michigan",
    "lng": -87.61978999,
    "lat": 41.66355227,
    "type": "bus",
    "route": "108"
  },
  {
    "name": "Bus 108 / Halsted & 126th Street",
    "lng": -87.64139073,
    "lat": 41.66494282,
    "type": "bus",
    "route": "108"
  },
  {
    "name": "Bus 108 / Halsted & 123rd Street",
    "lng": -87.64180649,
    "lat": 41.67061165,
    "type": "bus",
    "route": "108"
  },
  {
    "name": "Bus 108 / Halsted & 120th Street",
    "lng": -87.64196687,
    "lat": 41.67565121,
    "type": "bus",
    "route": "108"
  },
  {
    "name": "Bus 108 / Halsted & 117th Street",
    "lng": -87.64216929,
    "lat": 41.68157874,
    "type": "bus",
    "route": "108"
  },
  {
    "name": "Bus 108 / Halsted & 114th Street",
    "lng": -87.64209773,
    "lat": 41.68677782,
    "type": "bus",
    "route": "108"
  },
  {
    "name": "Bus 108 / Halsted & 111th Street",
    "lng": -87.64225897,
    "lat": 41.69224074,
    "type": "bus",
    "route": "108"
  },
  {
    "name": "Bus 108 / Halsted & 108th Street",
    "lng": -87.64243574,
    "lat": 41.69766282,
    "type": "bus",
    "route": "108"
  },
  {
    "name": "Bus 108 / Halsted & 105th Street",
    "lng": -87.64259774,
    "lat": 41.70312482,
    "type": "bus",
    "route": "108"
  },
  {
    "name": "Bus 108 / Halsted & 102nd Street",
    "lng": -87.64278374,
    "lat": 41.70860082,
    "type": "bus",
    "route": "108"
  },
  {
    "name": "Bus 108 / Halsted & 99th Street",
    "lng": -87.64318752,
    "lat": 41.71376629,
    "type": "bus",
    "route": "108"
  },
  {
    "name": "Bus 108 / Halsted & 96th Street",
    "lng": -87.64329647,
    "lat": 41.71940549,
    "type": "bus",
    "route": "108"
  },
  {
    "name": "Bus 108 / 95th Street & Normal",
    "lng": -87.63610374,
    "lat": 41.72146583,
    "type": "bus",
    "route": "108"
  },
  {
    "name": "Bus 108 / 95th Street & Wentworth",
    "lng": -87.62877741,
    "lat": 41.72155799,
    "type": "bus",
    "route": "108"
  },
  {
    "name": "Bus 108 / 95th Street & Union",
    "lng": -87.64057374,
    "lat": 41.72160083,
    "type": "bus",
    "route": "108"
  },
  {
    "name": "Bus 108 / 95th Street & Eggleston",
    "lng": -87.63322074,
    "lat": 41.72167783,
    "type": "bus",
    "route": "108"
  },
  {
    "name": "Bus 108 / 95th Red Line Station",
    "lng": -87.62402373,
    "lat": 41.72205083,
    "type": "bus",
    "route": "108"
  },
  {
    "name": "Bus 11 / Western & Lawrence",
    "lng": -87.68907685,
    "lat": 41.9683641,
    "type": "bus",
    "route": "11"
  },
  {
    "name": "Bus 11 / Lincoln & Carmen",
    "lng": -87.69196104,
    "lat": 41.97372649,
    "type": "bus",
    "route": "11"
  },
  {
    "name": "Bus 11 / Lincoln & Balmoral",
    "lng": -87.69267178,
    "lat": 41.97949287,
    "type": "bus",
    "route": "11"
  },
  {
    "name": "Bus 11 / Lincoln & Washtenaw",
    "lng": -87.69683086,
    "lat": 41.98400757,
    "type": "bus",
    "route": "11"
  },
  {
    "name": "Bus 11 / Lincoln & Richmond",
    "lng": -87.70315578,
    "lat": 41.98796787,
    "type": "bus",
    "route": "11"
  },
  {
    "name": "Bus 11 / Lincoln & Kedzie",
    "lng": -87.70884339,
    "lat": 41.99116786,
    "type": "bus",
    "route": "11"
  },
  {
    "name": "Bus 11 / Lincoln & McCormick/Kimball",
    "lng": -87.71352034,
    "lat": 41.99404496,
    "type": "bus",
    "route": "11"
  },
  {
    "name": "Bus 11 / Kedzie & Devon",
    "lng": -87.70944073,
    "lat": 41.99750774,
    "type": "bus",
    "route": "11"
  },
  {
    "name": "Bus 11 / Kedzie & Pratt",
    "lng": -87.70922347,
    "lat": 42.00458244,
    "type": "bus",
    "route": "11"
  },
  {
    "name": "Bus 11 / 7061 N. Kedzie",
    "lng": -87.70929844,
    "lat": 42.01044319,
    "type": "bus",
    "route": "11"
  },
  {
    "name": "Bus 11 / Kedzie & Jarvis",
    "lng": -87.7086443,
    "lat": 42.01544566,
    "type": "bus",
    "route": "11"
  },
  {
    "name": "Bus 111 / Ashland & 119th Street",
    "lng": -87.66122238,
    "lat": 41.6780562,
    "type": "bus",
    "route": "111"
  },
  {
    "name": "Bus 111 / Marshfield & 116th Street",
    "lng": -87.66275709,
    "lat": 41.68358949,
    "type": "bus",
    "route": "111"
  },
  {
    "name": "Bus 111 / Vincennes & Montvale",
    "lng": -87.66562092,
    "lat": 41.68825642,
    "type": "bus",
    "route": "111"
  },
  {
    "name": "Bus 111 / 111th Street & Ashland",
    "lng": -87.66194274,
    "lat": 41.69206082,
    "type": "bus",
    "route": "111"
  },
  {
    "name": "Bus 111 / 111th Street & Throop",
    "lng": -87.65463722,
    "lat": 41.69216083,
    "type": "bus",
    "route": "111"
  },
  {
    "name": "Bus 111 / 111th Street & Ashland",
    "lng": -87.66172307,
    "lat": 41.69218418,
    "type": "bus",
    "route": "111"
  },
  {
    "name": "Bus 111 / 111th Street & Racine",
    "lng": -87.65220984,
    "lat": 41.6922098,
    "type": "bus",
    "route": "111"
  },
  {
    "name": "Bus 111 / 111th Street & Bishop",
    "lng": -87.65841225,
    "lat": 41.69224442,
    "type": "bus",
    "route": "111"
  },
  {
    "name": "Bus 111 / 111th Street & Morgan",
    "lng": -87.64733829,
    "lat": 41.69225479,
    "type": "bus",
    "route": "111"
  },
  {
    "name": "Bus 111 / 111th Street & Throop",
    "lng": -87.65445225,
    "lat": 41.69230147,
    "type": "bus",
    "route": "111"
  },
  {
    "name": "Bus 111 / 111th Street & Halsted",
    "lng": -87.64212972,
    "lat": 41.69230602,
    "type": "bus",
    "route": "111"
  },
  {
    "name": "Bus 111 / 111th Street & Aberdeen",
    "lng": -87.64953171,
    "lat": 41.69231961,
    "type": "bus",
    "route": "111"
  },
  {
    "name": "Bus 111 / 111th Street & Union",
    "lng": -87.64006009,
    "lat": 41.69233275,
    "type": "bus",
    "route": "111"
  },
  {
    "name": "Bus 111 / 111th Street & Morgan",
    "lng": -87.64706813,
    "lat": 41.69237543,
    "type": "bus",
    "route": "111"
  },
  {
    "name": "Bus 111 / 111th Street & Stewart",
    "lng": -87.63304362,
    "lat": 41.69239208,
    "type": "bus",
    "route": "111"
  },
  {
    "name": "Bus 111 / 111th Street & Halsted",
    "lng": -87.64273966,
    "lat": 41.69241606,
    "type": "bus",
    "route": "111"
  },
  {
    "name": "Bus 111 / 111th Street & Princeton",
    "lng": -87.63045147,
    "lat": 41.69241784,
    "type": "bus",
    "route": "111"
  },
  {
    "name": "Bus 111 / 111th Street & Union",
    "lng": -87.63987105,
    "lat": 41.69245225,
    "type": "bus",
    "route": "111"
  },
  {
    "name": "Bus 111 / 111th Street & Perry",
    "lng": -87.62590858,
    "lat": 41.69247408,
    "type": "bus",
    "route": "111"
  },
  {
    "name": "Bus 111 / 111th Street & Wallace",
    "lng": -87.6373989,
    "lat": 41.69249004,
    "type": "bus",
    "route": "111"
  },
  {
    "name": "Bus 111 / 111th Street & State",
    "lng": -87.62323001,
    "lat": 41.6925258,
    "type": "bus",
    "route": "111"
  },
  {
    "name": "Bus 111 / 111th Street & Stewart",
    "lng": -87.63320637,
    "lat": 41.69253232,
    "type": "bus",
    "route": "111"
  },
  {
    "name": "Bus 111 / 111th Street & Michigan",
    "lng": -87.62122981,
    "lat": 41.69254734,
    "type": "bus",
    "route": "111"
  },
  {
    "name": "Bus 111 / 111th Street & Princeton",
    "lng": -87.63024776,
    "lat": 41.69254888,
    "type": "bus",
    "route": "111"
  },
  {
    "name": "Bus 111 / 111th Street & Indiana",
    "lng": -87.61841278,
    "lat": 41.69257908,
    "type": "bus",
    "route": "111"
  },
  {
    "name": "Bus 111 / 111th Street & Wentworth",
    "lng": -87.62777286,
    "lat": 41.69258761,
    "type": "bus",
    "route": "111"
  },
  {
    "name": "Bus 111 / 300 E 111th Street",
    "lng": -87.61572673,
    "lat": 41.69265082,
    "type": "bus",
    "route": "111"
  },
  {
    "name": "Bus 111 / 111th Street & State",
    "lng": -87.62300685,
    "lat": 41.69266527,
    "type": "bus",
    "route": "111"
  },
  {
    "name": "Bus 111 / 300 E 111th Street",
    "lng": -87.61588368,
    "lat": 41.6927545,
    "type": "bus",
    "route": "111"
  },
  {
    "name": "Bus 111 / King Drive & 107th Street",
    "lng": -87.61351975,
    "lat": 41.6998892,
    "type": "bus",
    "route": "111"
  },
  {
    "name": "Bus 111 / King Drive & 103rd Street",
    "lng": -87.61362662,
    "lat": 41.70727253,
    "type": "bus",
    "route": "111"
  },
  {
    "name": "Bus 111 / King Drive & 99th Place",
    "lng": -87.61412012,
    "lat": 41.71421951,
    "type": "bus",
    "route": "111"
  },
  {
    "name": "Bus 111 / King Drive & 96th Street",
    "lng": -87.61401922,
    "lat": 41.71992208,
    "type": "bus",
    "route": "111"
  },
  {
    "name": "Bus 111 / 95th Red Line Station",
    "lng": -87.62396973,
    "lat": 41.72117383,
    "type": "bus",
    "route": "111"
  },
  {
    "name": "Bus 111 / 95th Street & Forest",
    "lng": -87.61666962,
    "lat": 41.72175499,
    "type": "bus",
    "route": "111"
  },
  {
    "name": "Bus 115 / Ashland & 119th Street",
    "lng": -87.66122238,
    "lat": 41.6780562,
    "type": "bus",
    "route": "115"
  },
  {
    "name": "Bus 115 / Marshfield & 116th Street",
    "lng": -87.66275709,
    "lat": 41.68358949,
    "type": "bus",
    "route": "115"
  },
  {
    "name": "Bus 115 / 115th Street & Loomis",
    "lng": -87.65677509,
    "lat": 41.68481765,
    "type": "bus",
    "route": "115"
  },
  {
    "name": "Bus 115 / 115th Street & Aberdeen",
    "lng": -87.64951505,
    "lat": 41.68494276,
    "type": "bus",
    "route": "115"
  },
  {
    "name": "Bus 115 / 115th Street & Loomis",
    "lng": -87.65655493,
    "lat": 41.68495368,
    "type": "bus",
    "route": "115"
  },
  {
    "name": "Bus 115 / 115th Street & Morgan",
    "lng": -87.64708104,
    "lat": 41.68496576,
    "type": "bus",
    "route": "115"
  },
  {
    "name": "Bus 115 / 115th Street & Throop",
    "lng": -87.65422553,
    "lat": 41.68498709,
    "type": "bus",
    "route": "115"
  },
  {
    "name": "Bus 115 / 115th Street & Halsted",
    "lng": -87.64173652,
    "lat": 41.68503482,
    "type": "bus",
    "route": "115"
  },
  {
    "name": "Bus 115 / 115th Street & Racine",
    "lng": -87.65183341,
    "lat": 41.68504175,
    "type": "bus",
    "route": "115"
  },
  {
    "name": "Bus 115 / 115th Street & Union",
    "lng": -87.64051259,
    "lat": 41.68505138,
    "type": "bus",
    "route": "115"
  },
  {
    "name": "Bus 115 / 115th Street & Aberdeen",
    "lng": -87.64936792,
    "lat": 41.68505382,
    "type": "bus",
    "route": "115"
  },
  {
    "name": "Bus 115 / 115th Street & Wallace",
    "lng": -87.6375109,
    "lat": 41.68510558,
    "type": "bus",
    "route": "115"
  },
  {
    "name": "Bus 115 / 115th Street & Princeton",
    "lng": -87.63024181,
    "lat": 41.68517642,
    "type": "bus",
    "route": "115"
  },
  {
    "name": "Bus 115 / 115th Street & Union",
    "lng": -87.63957601,
    "lat": 41.68518205,
    "type": "bus",
    "route": "115"
  },
  {
    "name": "Bus 115 / 115th Street & Perry",
    "lng": -87.62558458,
    "lat": 41.68524001,
    "type": "bus",
    "route": "115"
  },
  {
    "name": "Bus 115 / 115th Street & Normal",
    "lng": -87.63480024,
    "lat": 41.68525605,
    "type": "bus",
    "route": "115"
  },
  {
    "name": "Bus 115 / 115th Street & Michigan",
    "lng": -87.62045703,
    "lat": 41.68528995,
    "type": "bus",
    "route": "115"
  },
  {
    "name": "Bus 115 / 115th Street & Princeton",
    "lng": -87.62989761,
    "lat": 41.68532107,
    "type": "bus",
    "route": "115"
  },
  {
    "name": "Bus 115 / 115th Street & Forest",
    "lng": -87.61570344,
    "lat": 41.68535265,
    "type": "bus",
    "route": "115"
  },
  {
    "name": "Bus 115 / 115th Street & State",
    "lng": -87.62267799,
    "lat": 41.68539972,
    "type": "bus",
    "route": "115"
  },
  {
    "name": "Bus 115 / 115th Street & Forest",
    "lng": -87.61536941,
    "lat": 41.68548192,
    "type": "bus",
    "route": "115"
  },
  {
    "name": "Bus 115 / Cottage Grove & 113th Street",
    "lng": -87.61080495,
    "lat": 41.68899189,
    "type": "bus",
    "route": "115"
  },
  {
    "name": "Bus 115 / 11000 S Cottage Grove",
    "lng": -87.60932273,
    "lat": 41.69464982,
    "type": "bus",
    "route": "115"
  },
  {
    "name": "Bus 115 / Cottage Grove & 107th Street",
    "lng": -87.6080585,
    "lat": 41.7002115,
    "type": "bus",
    "route": "115"
  },
  {
    "name": "Bus 115 / Cottage Grove & 104th Street",
    "lng": -87.60684395,
    "lat": 41.70553576,
    "type": "bus",
    "route": "115"
  },
  {
    "name": "Bus 115 / Cottage Grove & 101st Street",
    "lng": -87.60581446,
    "lat": 41.7109716,
    "type": "bus",
    "route": "115"
  },
  {
    "name": "Bus 115 / Cottage Grove & 98th Street",
    "lng": -87.60436418,
    "lat": 41.71655375,
    "type": "bus",
    "route": "115"
  },
  {
    "name": "Bus 115 / 95th Red Line Station",
    "lng": -87.62396573,
    "lat": 41.72093283,
    "type": "bus",
    "route": "115"
  },
  {
    "name": "Bus 115 / Cottage Grove & 95th Street",
    "lng": -87.60321745,
    "lat": 41.72152752,
    "type": "bus",
    "route": "115"
  },
  {
    "name": "Bus 115 / 95th Street & Michigan",
    "lng": -87.62074179,
    "lat": 41.72168377,
    "type": "bus",
    "route": "115"
  },
  {
    "name": "Bus 115 / 95th Street & King Drive",
    "lng": -87.61434771,
    "lat": 41.7217841,
    "type": "bus",
    "route": "115"
  },
  {
    "name": "Bus 115 / Cottage Grove & 95th Street",
    "lng": -87.60331984,
    "lat": 41.72183548,
    "type": "bus",
    "route": "115"
  },
  {
    "name": "Bus 115 / 95th Street & Eberhart",
    "lng": -87.61183614,
    "lat": 41.72186958,
    "type": "bus",
    "route": "115"
  },
  {
    "name": "Bus 115 / 95th Street & Michigan",
    "lng": -87.62103355,
    "lat": 41.72188457,
    "type": "bus",
    "route": "115"
  },
  {
    "name": "Bus 115 / 95th Street & St. Lawrence",
    "lng": -87.60956873,
    "lat": 41.72189483,
    "type": "bus",
    "route": "115"
  },
  {
    "name": "Bus 115 / 95th Street & Indiana",
    "lng": -87.61882512,
    "lat": 41.72192477,
    "type": "bus",
    "route": "115"
  },
  {
    "name": "Bus 115 / 95th Street & Cottage Grove",
    "lng": -87.60455232,
    "lat": 41.72195156,
    "type": "bus",
    "route": "115"
  },
  {
    "name": "Bus 115 / 95th Street & Forest",
    "lng": -87.61646558,
    "lat": 41.72196371,
    "type": "bus",
    "route": "115"
  },
  {
    "name": "Bus 115 / 95th Street & St. Lawrence",
    "lng": -87.60922629,
    "lat": 41.7220855,
    "type": "bus",
    "route": "115"
  },
  {
    "name": "Bus 119 / 119th Street & Western",
    "lng": -87.68031243,
    "lat": 41.67714851,
    "type": "bus",
    "route": "119"
  },
  {
    "name": "Bus 119 / 119th Street & Vincennes",
    "lng": -87.67255358,
    "lat": 41.6772653,
    "type": "bus",
    "route": "119"
  },
  {
    "name": "Bus 119 / 119th Street & Page",
    "lng": -87.66524805,
    "lat": 41.67740654,
    "type": "bus",
    "route": "119"
  },
  {
    "name": "Bus 119 / 119th Street & Vincennes",
    "lng": -87.67157729,
    "lat": 41.67742216,
    "type": "bus",
    "route": "119"
  },
  {
    "name": "Bus 119 / 119th Street & Marshfield",
    "lng": -87.66267172,
    "lat": 41.67742462,
    "type": "bus",
    "route": "119"
  },
  {
    "name": "Bus 119 / 119th Street & Loomis",
    "lng": -87.65659415,
    "lat": 41.67754811,
    "type": "bus",
    "route": "119"
  },
  {
    "name": "Bus 119 / 119th Street & Page",
    "lng": -87.66505484,
    "lat": 41.67755556,
    "type": "bus",
    "route": "119"
  },
  {
    "name": "Bus 119 / Western & 119th Street Terminal",
    "lng": -87.6799084,
    "lat": 41.6775569,
    "type": "bus",
    "route": "119"
  },
  {
    "name": "Bus 119 / 119th Street & Marshfield",
    "lng": -87.66273224,
    "lat": 41.67758975,
    "type": "bus",
    "route": "119"
  },
  {
    "name": "Bus 119 / 119th Street & Elizabeth",
    "lng": -87.65271988,
    "lat": 41.677601,
    "type": "bus",
    "route": "119"
  },
  {
    "name": "Bus 119 / 119th Street & Ashland",
    "lng": -87.66120191,
    "lat": 41.6776356,
    "type": "bus",
    "route": "119"
  },
  {
    "name": "Bus 119 / 119th Street & Morgan",
    "lng": -87.64688555,
    "lat": 41.67767772,
    "type": "bus",
    "route": "119"
  },
  {
    "name": "Bus 119 / 119th Street & Loomis",
    "lng": -87.65639212,
    "lat": 41.67767776,
    "type": "bus",
    "route": "119"
  },
  {
    "name": "Bus 119 / 119th Street & Peoria",
    "lng": -87.64442881,
    "lat": 41.6777164,
    "type": "bus",
    "route": "119"
  },
  {
    "name": "Bus 119 / 119th Street & Elizabeth",
    "lng": -87.65279209,
    "lat": 41.67774406,
    "type": "bus",
    "route": "119"
  },
  {
    "name": "Bus 119 / 119th Street & Halsted",
    "lng": -87.642148,
    "lat": 41.67775067,
    "type": "bus",
    "route": "119"
  },
  {
    "name": "Bus 119 / 119th Street & Normal",
    "lng": -87.63479473,
    "lat": 41.67784382,
    "type": "bus",
    "route": "119"
  },
  {
    "name": "Bus 119 / 119th Street & Peoria",
    "lng": -87.6442334,
    "lat": 41.67785889,
    "type": "bus",
    "route": "119"
  },
  {
    "name": "Bus 119 / 119th Street & Stewart",
    "lng": -87.63240062,
    "lat": 41.67787172,
    "type": "bus",
    "route": "119"
  },
  {
    "name": "Bus 119 / 119th Street & Halsted",
    "lng": -87.6422611,
    "lat": 41.67788492,
    "type": "bus",
    "route": "119"
  },
  {
    "name": "Bus 119 / 119th Street & Princeton",
    "lng": -87.62999021,
    "lat": 41.67789816,
    "type": "bus",
    "route": "119"
  },
  {
    "name": "Bus 119 / 119th Street & Wallace",
    "lng": -87.63697659,
    "lat": 41.67793175,
    "type": "bus",
    "route": "119"
  },
  {
    "name": "Bus 119 / 119th Street & Perry",
    "lng": -87.62524575,
    "lat": 41.67794953,
    "type": "bus",
    "route": "119"
  },
  {
    "name": "Bus 119 / 119th Street & Normal",
    "lng": -87.63456921,
    "lat": 41.67795962,
    "type": "bus",
    "route": "119"
  },
  {
    "name": "Bus 119 / 119th Street & State",
    "lng": -87.62278223,
    "lat": 41.67797399,
    "type": "bus",
    "route": "119"
  },
  {
    "name": "Bus 119 / 119th Street & Stewart",
    "lng": -87.63214341,
    "lat": 41.67798434,
    "type": "bus",
    "route": "119"
  },
  {
    "name": "Bus 119 / 119th Street & Perry",
    "lng": -87.62503724,
    "lat": 41.67806217,
    "type": "bus",
    "route": "119"
  },
  {
    "name": "Bus 119 / Michigan & 117th Street",
    "lng": -87.62055453,
    "lat": 41.68146997,
    "type": "bus",
    "route": "119"
  },
  {
    "name": "Bus 119 / Michigan & 114th Street",
    "lng": -87.62081973,
    "lat": 41.68713282,
    "type": "bus",
    "route": "119"
  },
  {
    "name": "Bus 119 / Michigan & 111th Street",
    "lng": -87.62112582,
    "lat": 41.69240853,
    "type": "bus",
    "route": "119"
  },
  {
    "name": "Bus 119 / Michigan & 108th Street",
    "lng": -87.62080109,
    "lat": 41.69801751,
    "type": "bus",
    "route": "119"
  },
  {
    "name": "Bus 119 / Michigan & 105th Street",
    "lng": -87.62055223,
    "lat": 41.70337697,
    "type": "bus",
    "route": "119"
  },
  {
    "name": "Bus 119 / Michigan & 102nd Street",
    "lng": -87.61986268,
    "lat": 41.70898957,
    "type": "bus",
    "route": "119"
  },
  {
    "name": "Bus 119 / Michigan & 99th Street",
    "lng": -87.6202654,
    "lat": 41.71449734,
    "type": "bus",
    "route": "119"
  },
  {
    "name": "Bus 119 / Michigan & 96th Street",
    "lng": -87.62045173,
    "lat": 41.71989583,
    "type": "bus",
    "route": "119"
  },
  {
    "name": "Bus 12 / Indiana & 16th Street",
    "lng": -87.62253365,
    "lat": 41.86041389,
    "type": "bus",
    "route": "12"
  },
  {
    "name": "Bus 12 / Roosevelt & Central",
    "lng": -87.76400471,
    "lat": 41.86554475,
    "type": "bus",
    "route": "12"
  },
  {
    "name": "Bus 12 / Roosevelt & Laramie",
    "lng": -87.7546797,
    "lat": 41.86565643,
    "type": "bus",
    "route": "12"
  },
  {
    "name": "Bus 12 / Indiana & 13th Street",
    "lng": -87.62271009,
    "lat": 41.86566453,
    "type": "bus",
    "route": "12"
  },
  {
    "name": "Bus 12 / Roosevelt & Central",
    "lng": -87.7641751,
    "lat": 41.86567416,
    "type": "bus",
    "route": "12"
  },
  {
    "name": "Bus 12 / Roosevelt & 51st Avenue",
    "lng": -87.75214404,
    "lat": 41.86574288,
    "type": "bus",
    "route": "12"
  },
  {
    "name": "Bus 12 / Roosevelt & 54th Avenue",
    "lng": -87.75926685,
    "lat": 41.86577556,
    "type": "bus",
    "route": "12"
  },
  {
    "name": "Bus 12 / Roosevelt & 49th Avenue",
    "lng": -87.74733325,
    "lat": 41.86579576,
    "type": "bus",
    "route": "12"
  },
  {
    "name": "Bus 12 / 5300 W Roosevelt",
    "lng": -87.75701849,
    "lat": 41.86582258,
    "type": "bus",
    "route": "12"
  },
  {
    "name": "Bus 12 / Roosevelt & Cicero",
    "lng": -87.74440412,
    "lat": 41.86583351,
    "type": "bus",
    "route": "12"
  },
  {
    "name": "Bus 12 / Roosevelt & 51st Avenue",
    "lng": -87.7520362,
    "lat": 41.8658569,
    "type": "bus",
    "route": "12"
  },
  {
    "name": "Bus 12 / Roosevelt & 47th Avenue",
    "lng": -87.74241643,
    "lat": 41.86586623,
    "type": "bus",
    "route": "12"
  },
  {
    "name": "Bus 12 / Roosevelt & 50th Avenue",
    "lng": -87.74946854,
    "lat": 41.8659103,
    "type": "bus",
    "route": "12"
  },
  {
    "name": "Bus 12 / Roosevelt & Kilbourn",
    "lng": -87.73750567,
    "lat": 41.86593515,
    "type": "bus",
    "route": "12"
  },
  {
    "name": "Bus 12 / Roosevelt & 49th Avenue",
    "lng": -87.74703541,
    "lat": 41.86594089,
    "type": "bus",
    "route": "12"
  },
  {
    "name": "Bus 12 / Roosevelt & Kostner",
    "lng": -87.73466797,
    "lat": 41.86597857,
    "type": "bus",
    "route": "12"
  },
  {
    "name": "Bus 12 / Roosevelt & Cicero",
    "lng": -87.74521941,
    "lat": 41.86598343,
    "type": "bus",
    "route": "12"
  },
  {
    "name": "Bus 12 / Michigan & 13th Street",
    "lng": -87.62400465,
    "lat": 41.86599158,
    "type": "bus",
    "route": "12"
  },
  {
    "name": "Bus 12 / Roosevelt & Kildare",
    "lng": -87.732603,
    "lat": 41.8660058,
    "type": "bus",
    "route": "12"
  },
  {
    "name": "Bus 12 / Roosevelt & 47th Avenue",
    "lng": -87.74225929,
    "lat": 41.86602601,
    "type": "bus",
    "route": "12"
  },
  {
    "name": "Bus 12 / Roosevelt & Keeler",
    "lng": -87.72982512,
    "lat": 41.86604005,
    "type": "bus",
    "route": "12"
  },
  {
    "name": "Bus 12 / Roosevelt & Kilbourn",
    "lng": -87.73720821,
    "lat": 41.86607645,
    "type": "bus",
    "route": "12"
  },
  {
    "name": "Bus 12 / Roosevelt & Karlov",
    "lng": -87.72772678,
    "lat": 41.86608285,
    "type": "bus",
    "route": "12"
  },
  {
    "name": "Bus 12 / Roosevelt & Kostner",
    "lng": -87.73480342,
    "lat": 41.86611191,
    "type": "bus",
    "route": "12"
  },
  {
    "name": "Bus 12 / Roosevelt & Springfield",
    "lng": -87.72282704,
    "lat": 41.86612293,
    "type": "bus",
    "route": "12"
  },
  {
    "name": "Bus 12 / Roosevelt & Kildare",
    "lng": -87.73236299,
    "lat": 41.86613089,
    "type": "bus",
    "route": "12"
  },
  {
    "name": "Bus 12 / Roosevelt & Independence",
    "lng": -87.72026823,
    "lat": 41.86615631,
    "type": "bus",
    "route": "12"
  },
  {
    "name": "Bus 12 / Roosevelt & Keeler",
    "lng": -87.72995813,
    "lat": 41.86619221,
    "type": "bus",
    "route": "12"
  },
  {
    "name": "Bus 12 / Roosevelt & Central Park",
    "lng": -87.71564039,
    "lat": 41.86621189,
    "type": "bus",
    "route": "12"
  },
  {
    "name": "Bus 12 / Roosevelt & Karlov",
    "lng": -87.72754883,
    "lat": 41.86621702,
    "type": "bus",
    "route": "12"
  },
  {
    "name": "Bus 12 / Roosevelt & St. Louis",
    "lng": -87.71308677,
    "lat": 41.86626585,
    "type": "bus",
    "route": "12"
  },
  {
    "name": "Bus 12 / Roosevelt & Springfield",
    "lng": -87.72266503,
    "lat": 41.86629257,
    "type": "bus",
    "route": "12"
  },
  {
    "name": "Bus 12 / Roosevelt & Spaulding",
    "lng": -87.70778518,
    "lat": 41.86630699,
    "type": "bus",
    "route": "12"
  },
  {
    "name": "Bus 12 / Roosevelt & Independence",
    "lng": -87.71939103,
    "lat": 41.86633338,
    "type": "bus",
    "route": "12"
  },
  {
    "name": "Bus 12 / Roosevelt & Albany",
    "lng": -87.70325277,
    "lat": 41.86635347,
    "type": "bus",
    "route": "12"
  },
  {
    "name": "Bus 12 / Roosevelt & Central Park",
    "lng": -87.7157809,
    "lat": 41.86637736,
    "type": "bus",
    "route": "12"
  },
  {
    "name": "Bus 12 / Roosevelt & Sacramento",
    "lng": -87.70095927,
    "lat": 41.86637815,
    "type": "bus",
    "route": "12"
  },
  {
    "name": "Bus 12 / Roosevelt & St. Louis",
    "lng": -87.7128794,
    "lat": 41.86641244,
    "type": "bus",
    "route": "12"
  },
  {
    "name": "Bus 12 / Roosevelt & California",
    "lng": -87.69565105,
    "lat": 41.86641298,
    "type": "bus",
    "route": "12"
  },
  {
    "name": "Bus 12 / Roosevelt & Homan",
    "lng": -87.71027553,
    "lat": 41.86642578,
    "type": "bus",
    "route": "12"
  },
  {
    "name": "Bus 12 / Roosevelt & Francisco",
    "lng": -87.69843277,
    "lat": 41.86642685,
    "type": "bus",
    "route": "12"
  },
  {
    "name": "Bus 12 / Roosevelt & Spaulding",
    "lng": -87.70793171,
    "lat": 41.86645756,
    "type": "bus",
    "route": "12"
  },
  {
    "name": "Bus 12 / Roosevelt & Campbell",
    "lng": -87.68874095,
    "lat": 41.86646628,
    "type": "bus",
    "route": "12"
  },
  {
    "name": "Bus 12 / Roosevelt & Kedzie",
    "lng": -87.70540846,
    "lat": 41.86650842,
    "type": "bus",
    "route": "12"
  },
  {
    "name": "Bus 12 / Roosevelt & Western",
    "lng": -87.68572045,
    "lat": 41.86652029,
    "type": "bus",
    "route": "12"
  },
  {
    "name": "Bus 12 / Roosevelt & Sacramento",
    "lng": -87.70065175,
    "lat": 41.8665476,
    "type": "bus",
    "route": "12"
  },
  {
    "name": "Bus 12 / Roosevelt & Talman",
    "lng": -87.69217277,
    "lat": 41.86660486,
    "type": "bus",
    "route": "12"
  },
  {
    "name": "Bus 12 / Roosevelt & Wolcott",
    "lng": -87.67357317,
    "lat": 41.8666326,
    "type": "bus",
    "route": "12"
  },
  {
    "name": "Bus 12 / Roosevelt & Washtenaw",
    "lng": -87.69330786,
    "lat": 41.86664268,
    "type": "bus",
    "route": "12"
  },
  {
    "name": "Bus 12 / Roosevelt & Wood",
    "lng": -87.67147397,
    "lat": 41.86665128,
    "type": "bus",
    "route": "12"
  },
  {
    "name": "Bus 12 / Roosevelt & Campbell",
    "lng": -87.68878149,
    "lat": 41.86669193,
    "type": "bus",
    "route": "12"
  },
  {
    "name": "Bus 12 / Roosevelt & Paulina",
    "lng": -87.6690135,
    "lat": 41.86669842,
    "type": "bus",
    "route": "12"
  },
  {
    "name": "Bus 12 / Roosevelt & Western",
    "lng": -87.68586026,
    "lat": 41.8667238,
    "type": "bus",
    "route": "12"
  },
  {
    "name": "Bus 12 / Roosevelt & Ashland",
    "lng": -87.66588465,
    "lat": 41.86674138,
    "type": "bus",
    "route": "12"
  },
  {
    "name": "Bus 12 / Roosevelt & Throop",
    "lng": -87.65926234,
    "lat": 41.86685398,
    "type": "bus",
    "route": "12"
  },
  {
    "name": "Bus 12 / Roosevelt & Damen",
    "lng": -87.67595854,
    "lat": 41.86694318,
    "type": "bus",
    "route": "12"
  },
  {
    "name": "Bus 12 / Roosevelt & Blue Island",
    "lng": -87.65361104,
    "lat": 41.8669458,
    "type": "bus",
    "route": "12"
  },
  {
    "name": "Bus 12 / Roosevelt & Wolcott",
    "lng": -87.67354398,
    "lat": 41.86696721,
    "type": "bus",
    "route": "12"
  },
  {
    "name": "Bus 12 / Roosevelt & Ashland",
    "lng": -87.66672821,
    "lat": 41.86696864,
    "type": "bus",
    "route": "12"
  },
  {
    "name": "Bus 12 / Roosevelt & May",
    "lng": -87.65496906,
    "lat": 41.86698756,
    "type": "bus",
    "route": "12"
  },
  {
    "name": "Bus 12 / Ogden & Roosevelt",
    "lng": -87.68316723,
    "lat": 41.86700812,
    "type": "bus",
    "route": "12"
  },
  {
    "name": "Bus 12 / Roosevelt & Wood",
    "lng": -87.67112898,
    "lat": 41.86701154,
    "type": "bus",
    "route": "12"
  },
  {
    "name": "Bus 12 / 900 W Roosevelt",
    "lng": -87.6494113,
    "lat": 41.86701396,
    "type": "bus",
    "route": "12"
  },
  {
    "name": "Bus 12 / Roosevelt & Loomis",
    "lng": -87.6618901,
    "lat": 41.86702534,
    "type": "bus",
    "route": "12"
  },
  {
    "name": "Bus 12 / Ogden & Roosevelt",
    "lng": -87.68344724,
    "lat": 41.86703597,
    "type": "bus",
    "route": "12"
  },
  {
    "name": "Bus 12 / Roosevelt & Paulina",
    "lng": -87.66879849,
    "lat": 41.86703661,
    "type": "bus",
    "route": "12"
  },
  {
    "name": "Bus 12 / Roosevelt & Morgan",
    "lng": -87.65122947,
    "lat": 41.86703739,
    "type": "bus",
    "route": "12"
  },
  {
    "name": "Bus 12 / Roosevelt & Throop",
    "lng": -87.65904044,
    "lat": 41.86707394,
    "type": "bus",
    "route": "12"
  },
  {
    "name": "Bus 12 / Roosevelt & Halsted",
    "lng": -87.64633057,
    "lat": 41.8670786,
    "type": "bus",
    "route": "12"
  },
  {
    "name": "Bus 12 / Roosevelt & Racine",
    "lng": -87.65652081,
    "lat": 41.86711318,
    "type": "bus",
    "route": "12"
  },
  {
    "name": "Bus 12 / Roosevelt & Jefferson",
    "lng": -87.64227639,
    "lat": 41.86712646,
    "type": "bus",
    "route": "12"
  },
  {
    "name": "Bus 12 / Central & Fillmore",
    "lng": -87.76448437,
    "lat": 41.86716778,
    "type": "bus",
    "route": "12"
  },
  {
    "name": "Bus 12 / Roosevelt & Blue Island",
    "lng": -87.65308541,
    "lat": 41.86717505,
    "type": "bus",
    "route": "12"
  },
  {
    "name": "Bus 12 / Roosevelt & Clark",
    "lng": -87.63061186,
    "lat": 41.86724646,
    "type": "bus",
    "route": "12"
  },
  {
    "name": "Bus 12 / Roosevelt & Halsted",
    "lng": -87.64746,
    "lat": 41.86725853,
    "type": "bus",
    "route": "12"
  },
  {
    "name": "Bus 12 / Roosevelt & Delano",
    "lng": -87.63218404,
    "lat": 41.86727145,
    "type": "bus",
    "route": "12"
  },
  {
    "name": "Bus 12 / Roosevelt & Jefferson",
    "lng": -87.64253866,
    "lat": 41.86732985,
    "type": "bus",
    "route": "12"
  },
  {
    "name": "Bus 12 / Central & Fillmore",
    "lng": -87.76412138,
    "lat": 41.86733978,
    "type": "bus",
    "route": "12"
  },
  {
    "name": "Bus 12 / Roosevelt & Michigan/Indiana",
    "lng": -87.62326307,
    "lat": 41.86734672,
    "type": "bus",
    "route": "12"
  },
  {
    "name": "Bus 12 / Roosevelt & Canal",
    "lng": -87.63906117,
    "lat": 41.86740804,
    "type": "bus",
    "route": "12"
  },
  {
    "name": "Bus 12 / Roosevelt & Clark",
    "lng": -87.63084353,
    "lat": 41.86749762,
    "type": "bus",
    "route": "12"
  },
  {
    "name": "Bus 12 / Roosevelt & Michigan",
    "lng": -87.62450901,
    "lat": 41.86760108,
    "type": "bus",
    "route": "12"
  },
  {
    "name": "Bus 12 / Ogden & Taylor",
    "lng": -87.68147465,
    "lat": 41.86868264,
    "type": "bus",
    "route": "12"
  },
  {
    "name": "Bus 12 / Sacramento & Polk",
    "lng": -87.70102187,
    "lat": 41.87110269,
    "type": "bus",
    "route": "12"
  },
  {
    "name": "Bus 12 / Central & Harrison Terminal",
    "lng": -87.76480751,
    "lat": 41.8725738,
    "type": "bus",
    "route": "12"
  },
  {
    "name": "Bus 134 / Franklin & Jackson",
    "lng": -87.63511522,
    "lat": 41.87792311,
    "type": "bus",
    "route": "134"
  },
  {
    "name": "Bus 134 / LaSalle & Randolph/Washington",
    "lng": -87.63257736,
    "lat": 41.88402622,
    "type": "bus",
    "route": "134"
  },
  {
    "name": "Bus 134 / Wacker (Upper) & State",
    "lng": -87.62762805,
    "lat": 41.88675423,
    "type": "bus",
    "route": "134"
  },
  {
    "name": "Bus 134 / Wacker (Upper) & Columbus",
    "lng": -87.62097275,
    "lat": 41.88779986,
    "type": "bus",
    "route": "134"
  },
  {
    "name": "Bus 134 / Stockton & Arlington",
    "lng": -87.63778048,
    "lat": 41.92649591,
    "type": "bus",
    "route": "134"
  },
  {
    "name": "Bus 134 / Stockton & Wrightwood",
    "lng": -87.63903655,
    "lat": 41.93131186,
    "type": "bus",
    "route": "134"
  },
  {
    "name": "Bus 134 / Sheridan & Wellington",
    "lng": -87.6395066,
    "lat": 41.93643247,
    "type": "bus",
    "route": "134"
  },
  {
    "name": "Bus 135 / Franklin & Jackson",
    "lng": -87.63511522,
    "lat": 41.87792311,
    "type": "bus",
    "route": "135"
  },
  {
    "name": "Bus 135 / LaSalle & Randolph/Washington",
    "lng": -87.63257736,
    "lat": 41.88402622,
    "type": "bus",
    "route": "135"
  },
  {
    "name": "Bus 135 / Wacker (Upper) & State",
    "lng": -87.62762805,
    "lat": 41.88675423,
    "type": "bus",
    "route": "135"
  },
  {
    "name": "Bus 135 / Wacker (Upper) & Columbus",
    "lng": -87.62097275,
    "lat": 41.88779986,
    "type": "bus",
    "route": "135"
  },
  {
    "name": "Bus 135 / Lake Shore Drive & Belmont",
    "lng": -87.63893373,
    "lat": 41.94037163,
    "type": "bus",
    "route": "135"
  },
  {
    "name": "Bus 135 / Lake Shore & Hawthorne",
    "lng": -87.64129768,
    "lat": 41.94466256,
    "type": "bus",
    "route": "135"
  },
  {
    "name": "Bus 135 / Lake Shore & Waveland",
    "lng": -87.64455019,
    "lat": 41.9502855,
    "type": "bus",
    "route": "135"
  },
  {
    "name": "Bus 135 / Irving Park & Clarendon",
    "lng": -87.64941558,
    "lat": 41.95451877,
    "type": "bus",
    "route": "135"
  },
  {
    "name": "Bus 135 / Clarendon & Junior Terrace",
    "lng": -87.64979997,
    "lat": 41.96027168,
    "type": "bus",
    "route": "135"
  },
  {
    "name": "Bus 136 / Franklin & Jackson",
    "lng": -87.63511522,
    "lat": 41.87792311,
    "type": "bus",
    "route": "136"
  },
  {
    "name": "Bus 136 / LaSalle & Randolph/Washington",
    "lng": -87.63257736,
    "lat": 41.88402622,
    "type": "bus",
    "route": "136"
  },
  {
    "name": "Bus 136 / Wacker (Upper) & State",
    "lng": -87.62762805,
    "lat": 41.88675423,
    "type": "bus",
    "route": "136"
  },
  {
    "name": "Bus 136 / Wacker (Upper) & Columbus",
    "lng": -87.62097275,
    "lat": 41.88779986,
    "type": "bus",
    "route": "136"
  },
  {
    "name": "Bus 136 / Marine Drive & Irving Park",
    "lng": -87.64521655,
    "lat": 41.9549588,
    "type": "bus",
    "route": "136"
  },
  {
    "name": "Bus 136 / 4251 N Marine Drive",
    "lng": -87.64669775,
    "lat": 41.96013235,
    "type": "bus",
    "route": "136"
  },
  {
    "name": "Bus 136 / Marine Drive & Wilson",
    "lng": -87.64871854,
    "lat": 41.96560761,
    "type": "bus",
    "route": "136"
  },
  {
    "name": "Bus 136 / Marine Drive & Gunnison",
    "lng": -87.64982845,
    "lat": 41.97012205,
    "type": "bus",
    "route": "136"
  },
  {
    "name": "Bus 136 / Marine Drive & Winona/Carmen",
    "lng": -87.65163377,
    "lat": 41.97480287,
    "type": "bus",
    "route": "136"
  },
  {
    "name": "Bus 136 / Sheridan & Balmoral",
    "lng": -87.65516098,
    "lat": 41.97979032,
    "type": "bus",
    "route": "136"
  },
  {
    "name": "Bus 136 / Bryn Mawr Red Line Station",
    "lng": -87.65884632,
    "lat": 41.98355744,
    "type": "bus",
    "route": "136"
  },
  {
    "name": "Bus 136 / Sheridan & Ardmore",
    "lng": -87.6553847,
    "lat": 41.98746657,
    "type": "bus",
    "route": "136"
  },
  {
    "name": "Bus 136 / Sheridan & Glenlake",
    "lng": -87.65553377,
    "lat": 41.99217487,
    "type": "bus",
    "route": "136"
  },
  {
    "name": "Bus 136 / Sheridan & Winthrop",
    "lng": -87.65845202,
    "lat": 41.99812855,
    "type": "bus",
    "route": "136"
  },
  {
    "name": "Bus 143 / Congress Plaza & Michigan",
    "lng": -87.62355688,
    "lat": 41.87486595,
    "type": "bus",
    "route": "143"
  },
  {
    "name": "Bus 143 / Michigan & Monroe",
    "lng": -87.62452219,
    "lat": 41.88063279,
    "type": "bus",
    "route": "143"
  },
  {
    "name": "Bus 143 / Michigan & South Water",
    "lng": -87.62438975,
    "lat": 41.8867076,
    "type": "bus",
    "route": "143"
  },
  {
    "name": "Bus 143 / Michigan & Grand",
    "lng": -87.62403975,
    "lat": 41.89177686,
    "type": "bus",
    "route": "143"
  },
  {
    "name": "Bus 143 / Michigan & Pearson",
    "lng": -87.62423975,
    "lat": 41.89773886,
    "type": "bus",
    "route": "143"
  },
  {
    "name": "Bus 143 / Stockton & Arlington",
    "lng": -87.63778048,
    "lat": 41.92649591,
    "type": "bus",
    "route": "143"
  },
  {
    "name": "Bus 143 / Stockton & Wrightwood",
    "lng": -87.63903655,
    "lat": 41.93131186,
    "type": "bus",
    "route": "143"
  },
  {
    "name": "Bus 143 / Sheridan & Wellington",
    "lng": -87.6395066,
    "lat": 41.93643247,
    "type": "bus",
    "route": "143"
  },
  {
    "name": "Bus 146 / Soldier Field & Field Museum",
    "lng": -87.61569498,
    "lat": 41.86480063,
    "type": "bus",
    "route": "146"
  },
  {
    "name": "Bus 146 / Solidarity Dr & Planetarium",
    "lng": -87.60785874,
    "lat": 41.86615285,
    "type": "bus",
    "route": "146"
  },
  {
    "name": "Bus 146 / Roosevelt & State",
    "lng": -87.6271163,
    "lat": 41.86729484,
    "type": "bus",
    "route": "146"
  },
  {
    "name": "Bus 146 / State & Polk",
    "lng": -87.62767144,
    "lat": 41.87206431,
    "type": "bus",
    "route": "146"
  },
  {
    "name": "Bus 146 / State & Van Buren",
    "lng": -87.62754829,
    "lat": 41.87685552,
    "type": "bus",
    "route": "146"
  },
  {
    "name": "Bus 146 / State & Madison",
    "lng": -87.62768075,
    "lat": 41.88193285,
    "type": "bus",
    "route": "146"
  },
  {
    "name": "Bus 146 / State & E. Wacker",
    "lng": -87.62783675,
    "lat": 41.88669686,
    "type": "bus",
    "route": "146"
  },
  {
    "name": "Bus 146 / Michigan & Hubbard (Tribune Bldg.)",
    "lng": -87.62397475,
    "lat": 41.89021286,
    "type": "bus",
    "route": "146"
  },
  {
    "name": "Bus 146 / Michigan & Huron",
    "lng": -87.62410975,
    "lat": 41.89480586,
    "type": "bus",
    "route": "146"
  },
  {
    "name": "Bus 146 / Michigan & Delaware",
    "lng": -87.62425175,
    "lat": 41.89935286,
    "type": "bus",
    "route": "146"
  },
  {
    "name": "Bus 146 / Lake Shore Drive & Belmont",
    "lng": -87.63893373,
    "lat": 41.94037163,
    "type": "bus",
    "route": "146"
  },
  {
    "name": "Bus 146 / Lake Shore & Hawthorne",
    "lng": -87.64129768,
    "lat": 41.94466256,
    "type": "bus",
    "route": "146"
  },
  {
    "name": "Bus 146 / Lake Shore & Waveland",
    "lng": -87.64455019,
    "lat": 41.9502855,
    "type": "bus",
    "route": "146"
  },
  {
    "name": "Bus 146 / Marine Drive & Irving Park",
    "lng": -87.64521655,
    "lat": 41.9549588,
    "type": "bus",
    "route": "146"
  },
  {
    "name": "Bus 146 / 4251 N Marine Drive",
    "lng": -87.64669775,
    "lat": 41.96013235,
    "type": "bus",
    "route": "146"
  },
  {
    "name": "Bus 146 / Marine Drive & Wilson",
    "lng": -87.64871854,
    "lat": 41.96560761,
    "type": "bus",
    "route": "146"
  },
  {
    "name": "Bus 146 / Marine Drive & Gunnison",
    "lng": -87.64982845,
    "lat": 41.97012205,
    "type": "bus",
    "route": "146"
  },
  {
    "name": "Bus 146 / Marine Drive & Winona/Carmen",
    "lng": -87.65163377,
    "lat": 41.97480287,
    "type": "bus",
    "route": "146"
  },
  {
    "name": "Bus 146 / Foster & Broadway",
    "lng": -87.65962579,
    "lat": 41.97640574,
    "type": "bus",
    "route": "146"
  },
  {
    "name": "Bus 146 / Foster & Marine Drive",
    "lng": -87.65258023,
    "lat": 41.9765076,
    "type": "bus",
    "route": "146"
  },
  {
    "name": "Bus 146 / Berwyn & Broadway",
    "lng": -87.65930987,
    "lat": 41.9781011,
    "type": "bus",
    "route": "146"
  },
  {
    "name": "Bus 147 / Balbo & Michigan",
    "lng": -87.62358528,
    "lat": 41.8731092,
    "type": "bus",
    "route": "147"
  },
  {
    "name": "Bus 147 / State & Van Buren",
    "lng": -87.62754829,
    "lat": 41.87685552,
    "type": "bus",
    "route": "147"
  },
  {
    "name": "Bus 147 / State & Madison",
    "lng": -87.62768075,
    "lat": 41.88193285,
    "type": "bus",
    "route": "147"
  },
  {
    "name": "Bus 147 / Michigan & South Water",
    "lng": -87.62438975,
    "lat": 41.8867076,
    "type": "bus",
    "route": "147"
  },
  {
    "name": "Bus 147 / Michigan & Grand",
    "lng": -87.62403975,
    "lat": 41.89177686,
    "type": "bus",
    "route": "147"
  },
  {
    "name": "Bus 147 / Michigan & Pearson",
    "lng": -87.62423975,
    "lat": 41.89773886,
    "type": "bus",
    "route": "147"
  },
  {
    "name": "Bus 147 / Foster & Sheridan",
    "lng": -87.65476077,
    "lat": 41.97634287,
    "type": "bus",
    "route": "147"
  },
  {
    "name": "Bus 147 / Sheridan & Catalpa",
    "lng": -87.65522777,
    "lat": 41.98169187,
    "type": "bus",
    "route": "147"
  },
  {
    "name": "Bus 147 / Sheridan & Ardmore",
    "lng": -87.6553847,
    "lat": 41.98746657,
    "type": "bus",
    "route": "147"
  },
  {
    "name": "Bus 147 / Sheridan & Glenlake",
    "lng": -87.65553377,
    "lat": 41.99217487,
    "type": "bus",
    "route": "147"
  },
  {
    "name": "Bus 147 / Sheridan & Winthrop",
    "lng": -87.65845202,
    "lat": 41.99812855,
    "type": "bus",
    "route": "147"
  },
  {
    "name": "Bus 147 / Sheridan & North Shore",
    "lng": -87.66092516,
    "lat": 42.00334945,
    "type": "bus",
    "route": "147"
  },
  {
    "name": "Bus 147 / Sheridan & Morse",
    "lng": -87.66160377,
    "lat": 42.00814087,
    "type": "bus",
    "route": "147"
  },
  {
    "name": "Bus 147 / Sheridan & Touhy",
    "lng": -87.66353177,
    "lat": 42.01265687,
    "type": "bus",
    "route": "147"
  },
  {
    "name": "Bus 147 / Rogers & Paulina",
    "lng": -87.67242718,
    "lat": 42.01745538,
    "type": "bus",
    "route": "147"
  },
  {
    "name": "Bus 147 / Sheridan & Birchwood",
    "lng": -87.66580777,
    "lat": 42.01802888,
    "type": "bus",
    "route": "147"
  },
  {
    "name": "Bus 147 / Paulina & Howard Terminal",
    "lng": -87.67306558,
    "lat": 42.01804308,
    "type": "bus",
    "route": "147"
  },
  {
    "name": "Bus 147 / Howard & Sheridan",
    "lng": -87.6661827,
    "lat": 42.0192029,
    "type": "bus",
    "route": "147"
  },
  {
    "name": "Bus 148 / State & Harrison/Ida B Wells Drive",
    "lng": -87.62745857,
    "lat": 41.87489071,
    "type": "bus",
    "route": "148"
  },
  {
    "name": "Bus 148 / State & Adams",
    "lng": -87.62761545,
    "lat": 41.87940926,
    "type": "bus",
    "route": "148"
  },
  {
    "name": "Bus 148 / State & Randolph",
    "lng": -87.62779675,
    "lat": 41.88435886,
    "type": "bus",
    "route": "148"
  },
  {
    "name": "Bus 148 / Wacker (Upper) & Michigan",
    "lng": -87.62506075,
    "lat": 41.88836786,
    "type": "bus",
    "route": "148"
  },
  {
    "name": "Bus 148 / Michigan & Ontario",
    "lng": -87.62409475,
    "lat": 41.89320186,
    "type": "bus",
    "route": "148"
  },
  {
    "name": "Bus 148 / Michigan & Pearson",
    "lng": -87.62423975,
    "lat": 41.89773886,
    "type": "bus",
    "route": "148"
  },
  {
    "name": "Bus 148 / Irving Park & Clarendon",
    "lng": -87.64941558,
    "lat": 41.95451877,
    "type": "bus",
    "route": "148"
  },
  {
    "name": "Bus 148 / Clarendon & Junior Terrace",
    "lng": -87.64979997,
    "lat": 41.96027168,
    "type": "bus",
    "route": "148"
  },
  {
    "name": "Bus 148 / Clarendon & Wilson",
    "lng": -87.65008473,
    "lat": 41.96563328,
    "type": "bus",
    "route": "148"
  },
  {
    "name": "Bus 148 / Marine Drive & Gunnison",
    "lng": -87.65002676,
    "lat": 41.97019687,
    "type": "bus",
    "route": "148"
  },
  {
    "name": "Bus 148 / Marine Drive & Winona/Carmen",
    "lng": -87.65163377,
    "lat": 41.97480287,
    "type": "bus",
    "route": "148"
  },
  {
    "name": "Bus 15 / 103rd Street & Luella",
    "lng": -87.56822099,
    "lat": 41.7079775,
    "type": "bus",
    "route": "15"
  },
  {
    "name": "Bus 15 / 103rd Street & Stony Island Garage Terminal",
    "lng": -87.58117504,
    "lat": 41.70854102,
    "type": "bus",
    "route": "15"
  },
  {
    "name": "Bus 15 / Yates & 102nd Street",
    "lng": -87.56449071,
    "lat": 41.70980083,
    "type": "bus",
    "route": "15"
  },
  {
    "name": "Bus 15 / 100th Street & Clyde",
    "lng": -87.57153212,
    "lat": 41.71338126,
    "type": "bus",
    "route": "15"
  },
  {
    "name": "Bus 15 / 100th Street & Yates",
    "lng": -87.56471125,
    "lat": 41.71347442,
    "type": "bus",
    "route": "15"
  },
  {
    "name": "Bus 15 / 100th Street & Clyde",
    "lng": -87.57176648,
    "lat": 41.71350287,
    "type": "bus",
    "route": "15"
  },
  {
    "name": "Bus 15 / 100th Street & Yates",
    "lng": -87.56498534,
    "lat": 41.7135851,
    "type": "bus",
    "route": "15"
  },
  {
    "name": "Bus 15 / Van Vlissingen & 99th Street",
    "lng": -87.57411481,
    "lat": 41.71522812,
    "type": "bus",
    "route": "15"
  },
  {
    "name": "Bus 15 / Jeffery & 96th Street",
    "lng": -87.5754018,
    "lat": 41.72057754,
    "type": "bus",
    "route": "15"
  },
  {
    "name": "Bus 15 / Jeffery & 93rd Street",
    "lng": -87.57552042,
    "lat": 41.72599144,
    "type": "bus",
    "route": "15"
  },
  {
    "name": "Bus 15 / Jeffery & 90th Street",
    "lng": -87.57563539,
    "lat": 41.73151584,
    "type": "bus",
    "route": "15"
  },
  {
    "name": "Bus 15 / Jeffery & 87th Street",
    "lng": -87.57581049,
    "lat": 41.73688118,
    "type": "bus",
    "route": "15"
  },
  {
    "name": "Bus 15 / Jeffery & Anthony",
    "lng": -87.57572672,
    "lat": 41.74214079,
    "type": "bus",
    "route": "15"
  },
  {
    "name": "Bus 15 / Jeffery & 81st Street",
    "lng": -87.57595692,
    "lat": 41.7478438,
    "type": "bus",
    "route": "15"
  },
  {
    "name": "Bus 15 / Jeffery & 78th Street",
    "lng": -87.57607272,
    "lat": 41.75322484,
    "type": "bus",
    "route": "15"
  },
  {
    "name": "Bus 15 / Jeffery & 75th Street",
    "lng": -87.57622727,
    "lat": 41.75863491,
    "type": "bus",
    "route": "15"
  },
  {
    "name": "Bus 15 / Jeffery & 72nd Street",
    "lng": -87.576421,
    "lat": 41.76425325,
    "type": "bus",
    "route": "15"
  },
  {
    "name": "Bus 15 / Jeffery & 69th Street",
    "lng": -87.57644122,
    "lat": 41.76973765,
    "type": "bus",
    "route": "15"
  },
  {
    "name": "Bus 15 / 67th Street & Cornell",
    "lng": -87.58517981,
    "lat": 41.77329736,
    "type": "bus",
    "route": "15"
  },
  {
    "name": "Bus 15 / 67th Street & Bennett",
    "lng": -87.57906872,
    "lat": 41.77349784,
    "type": "bus",
    "route": "15"
  },
  {
    "name": "Bus 15 / Stony Island & 65th Street",
    "lng": -87.58620061,
    "lat": 41.77703584,
    "type": "bus",
    "route": "15"
  },
  {
    "name": "Bus 15 / Stony Island & 62nd Street",
    "lng": -87.58661398,
    "lat": 41.78279803,
    "type": "bus",
    "route": "15"
  },
  {
    "name": "Bus 15 / Stony Island & 59th Street",
    "lng": -87.58672073,
    "lat": 41.78806584,
    "type": "bus",
    "route": "15"
  },
  {
    "name": "Bus 15 / Stony Island & 56th Street",
    "lng": -87.58674501,
    "lat": 41.79308166,
    "type": "bus",
    "route": "15"
  },
  {
    "name": "Bus 15 / Lake Park & 54th Street",
    "lng": -87.58737065,
    "lat": 41.79819098,
    "type": "bus",
    "route": "15"
  },
  {
    "name": "Bus 15 / 51st Street & Wentworth",
    "lng": -87.63035902,
    "lat": 41.80172985,
    "type": "bus",
    "route": "15"
  },
  {
    "name": "Bus 15 / 51st Street & Wabash",
    "lng": -87.62430257,
    "lat": 41.80194704,
    "type": "bus",
    "route": "15"
  },
  {
    "name": "Bus 15 / 51st Street & King Drive",
    "lng": -87.61574705,
    "lat": 41.80204661,
    "type": "bus",
    "route": "15"
  },
  {
    "name": "Bus 15 / 51st Street & Michigan",
    "lng": -87.62245967,
    "lat": 41.80211256,
    "type": "bus",
    "route": "15"
  },
  {
    "name": "Bus 15 / 51st Street & St. Lawrence",
    "lng": -87.61145074,
    "lat": 41.80211584,
    "type": "bus",
    "route": "15"
  },
  {
    "name": "Bus 15 / 51st Street & Drexel Square",
    "lng": -87.60438518,
    "lat": 41.80223128,
    "type": "bus",
    "route": "15"
  },
  {
    "name": "Bus 15 / Wentworth & 51st Street",
    "lng": -87.63067175,
    "lat": 41.80224895,
    "type": "bus",
    "route": "15"
  },
  {
    "name": "Bus 15 / 51st Street & Champlain",
    "lng": -87.60989074,
    "lat": 41.80224984,
    "type": "bus",
    "route": "15"
  },
  {
    "name": "Bus 15 / E Hyde Park & Ellis",
    "lng": -87.60110052,
    "lat": 41.8022703,
    "type": "bus",
    "route": "15"
  },
  {
    "name": "Bus 15 / 51st Street & Evans",
    "lng": -87.60785676,
    "lat": 41.80229598,
    "type": "bus",
    "route": "15"
  },
  {
    "name": "Bus 15 / E Hyde Park & Woodlawn",
    "lng": -87.59645458,
    "lat": 41.80232135,
    "type": "bus",
    "route": "15"
  },
  {
    "name": "Bus 15 / E Hyde Park & Drexel",
    "lng": -87.60454914,
    "lat": 41.80234123,
    "type": "bus",
    "route": "15"
  },
  {
    "name": "Bus 15 / E Hyde Park & Kimbark",
    "lng": -87.59488193,
    "lat": 41.80234687,
    "type": "bus",
    "route": "15"
  },
  {
    "name": "Bus 15 / E Hyde Park & Ellis",
    "lng": -87.60195017,
    "lat": 41.80237102,
    "type": "bus",
    "route": "15"
  },
  {
    "name": "Bus 15 / E Hyde Park & Dorchester",
    "lng": -87.59164021,
    "lat": 41.80237562,
    "type": "bus",
    "route": "15"
  },
  {
    "name": "Bus 15 / Wells & 50th Street",
    "lng": -87.63237074,
    "lat": 41.80387484,
    "type": "bus",
    "route": "15"
  },
  {
    "name": "Bus 15 / Wells & 47th Street",
    "lng": -87.63267374,
    "lat": 41.80879484,
    "type": "bus",
    "route": "15"
  },
  {
    "name": "Bus 151 / Union Station Transit Center",
    "lng": -87.63987518,
    "lat": 41.87775325,
    "type": "bus",
    "route": "151"
  },
  {
    "name": "Bus 151 / Jackson & Financial Place",
    "lng": -87.63287375,
    "lat": 41.87808885,
    "type": "bus",
    "route": "151"
  },
  {
    "name": "Bus 151 / Adams & Canal",
    "lng": -87.63940675,
    "lat": 41.87936585,
    "type": "bus",
    "route": "151"
  },
  {
    "name": "Bus 151 / Adams & Clark",
    "lng": -87.63111025,
    "lat": 41.87948005,
    "type": "bus",
    "route": "151"
  },
  {
    "name": "Bus 151 / Michigan & Monroe",
    "lng": -87.62452219,
    "lat": 41.88063279,
    "type": "bus",
    "route": "151"
  },
  {
    "name": "Bus 151 / Michigan & South Water",
    "lng": -87.62438975,
    "lat": 41.8867076,
    "type": "bus",
    "route": "151"
  },
  {
    "name": "Bus 151 / Michigan & Grand",
    "lng": -87.62403975,
    "lat": 41.89177686,
    "type": "bus",
    "route": "151"
  },
  {
    "name": "Bus 151 / Michigan & Pearson",
    "lng": -87.62423975,
    "lat": 41.89773886,
    "type": "bus",
    "route": "151"
  },
  {
    "name": "Bus 151 / Lake Shore & Cedar",
    "lng": -87.62451875,
    "lat": 41.90223286,
    "type": "bus",
    "route": "151"
  },
  {
    "name": "Bus 151 / Lake Shore & Banks",
    "lng": -87.62551275,
    "lat": 41.90705186,
    "type": "bus",
    "route": "151"
  },
  {
    "name": "Bus 151 / Stockton & LaSalle",
    "lng": -87.63185634,
    "lat": 41.91362314,
    "type": "bus",
    "route": "151"
  },
  {
    "name": "Bus 151 / Stockton & Armitage",
    "lng": -87.63440381,
    "lat": 41.91875793,
    "type": "bus",
    "route": "151"
  },
  {
    "name": "Bus 151 / Stockton & Fullerton",
    "lng": -87.63616676,
    "lat": 41.92548386,
    "type": "bus",
    "route": "151"
  },
  {
    "name": "Bus 151 / Stockton & Wrightwood",
    "lng": -87.63903655,
    "lat": 41.93131186,
    "type": "bus",
    "route": "151"
  },
  {
    "name": "Bus 151 / Sheridan & Wellington",
    "lng": -87.6395066,
    "lat": 41.93643247,
    "type": "bus",
    "route": "151"
  },
  {
    "name": "Bus 151 / Lake Shore & Melrose",
    "lng": -87.6396757,
    "lat": 41.94129193,
    "type": "bus",
    "route": "151"
  },
  {
    "name": "Bus 151 / Lake Shore & Stratford",
    "lng": -87.64202067,
    "lat": 41.94598204,
    "type": "bus",
    "route": "151"
  },
  {
    "name": "Bus 151 / Lake Shore & Waveland",
    "lng": -87.64455019,
    "lat": 41.9502855,
    "type": "bus",
    "route": "151"
  },
  {
    "name": "Bus 151 / Sheridan & Sheffield",
    "lng": -87.65417389,
    "lat": 41.95263284,
    "type": "bus",
    "route": "151"
  },
  {
    "name": "Bus 151 / Sheridan & Pine Grove",
    "lng": -87.64766469,
    "lat": 41.95281553,
    "type": "bus",
    "route": "151"
  },
  {
    "name": "Bus 151 / Sheridan & Byron",
    "lng": -87.65442944,
    "lat": 41.95287897,
    "type": "bus",
    "route": "151"
  },
  {
    "name": "Bus 151 / Sheridan & Pine Grove",
    "lng": -87.64804865,
    "lat": 41.95293381,
    "type": "bus",
    "route": "151"
  },
  {
    "name": "Bus 151 / Sheridan & Dakin",
    "lng": -87.65446282,
    "lat": 41.95381946,
    "type": "bus",
    "route": "151"
  },
  {
    "name": "Bus 151 / 4225 N Sheridan",
    "lng": -87.65459424,
    "lat": 41.95916653,
    "type": "bus",
    "route": "151"
  },
  {
    "name": "Bus 151 / Sheridan & Wilson",
    "lng": -87.65486377,
    "lat": 41.96525387,
    "type": "bus",
    "route": "151"
  },
  {
    "name": "Bus 151 / Sheridan & Gunnison",
    "lng": -87.65492897,
    "lat": 41.97024927,
    "type": "bus",
    "route": "151"
  },
  {
    "name": "Bus 151 / Sheridan & Winona",
    "lng": -87.65505377,
    "lat": 41.97510287,
    "type": "bus",
    "route": "151"
  },
  {
    "name": "Bus 151 / Sheridan & Balmoral",
    "lng": -87.65516098,
    "lat": 41.97979032,
    "type": "bus",
    "route": "151"
  },
  {
    "name": "Bus 151 / Sheridan & Hollywood",
    "lng": -87.65532477,
    "lat": 41.98534687,
    "type": "bus",
    "route": "151"
  },
  {
    "name": "Bus 151 / Sheridan & Thorndale",
    "lng": -87.65546477,
    "lat": 41.98992387,
    "type": "bus",
    "route": "151"
  },
  {
    "name": "Bus 151 / Sheridan & Granville",
    "lng": -87.65560377,
    "lat": 41.99442687,
    "type": "bus",
    "route": "151"
  },
  {
    "name": "Bus 151 / Devon & Clark",
    "lng": -87.67021778,
    "lat": 41.99801979,
    "type": "bus",
    "route": "151"
  },
  {
    "name": "Bus 151 / Devon & Lakewood",
    "lng": -87.66318852,
    "lat": 41.99809899,
    "type": "bus",
    "route": "151"
  },
  {
    "name": "Bus 151 / Devon & Clark",
    "lng": -87.67037701,
    "lat": 41.99815579,
    "type": "bus",
    "route": "151"
  },
  {
    "name": "Bus 151 / Sheridan & Kenmore",
    "lng": -87.65688608,
    "lat": 41.99817586,
    "type": "bus",
    "route": "151"
  },
  {
    "name": "Bus 151 / Devon & Greenview",
    "lng": -87.66775759,
    "lat": 41.99819449,
    "type": "bus",
    "route": "151"
  },
  {
    "name": "Bus 151 / Devon & Sheridan",
    "lng": -87.66108036,
    "lat": 41.99825839,
    "type": "bus",
    "route": "151"
  },
  {
    "name": "Bus 151 / Clark & Arthur Terminal",
    "lng": -87.67075332,
    "lat": 41.99973089,
    "type": "bus",
    "route": "151"
  },
  {
    "name": "Bus 155 / Devon & Albany",
    "lng": -87.70703879,
    "lat": 41.99730449,
    "type": "bus",
    "route": "155"
  },
  {
    "name": "Bus 155 / Devon & California",
    "lng": -87.69980606,
    "lat": 41.99750968,
    "type": "bus",
    "route": "155"
  },
  {
    "name": "Bus 155 / Devon & Campbell",
    "lng": -87.69231873,
    "lat": 41.99763462,
    "type": "bus",
    "route": "155"
  },
  {
    "name": "Bus 155 / Devon & Hoyne",
    "lng": -87.68267966,
    "lat": 41.99775509,
    "type": "bus",
    "route": "155"
  },
  {
    "name": "Bus 155 / Devon & Campbell",
    "lng": -87.69220873,
    "lat": 41.99778057,
    "type": "bus",
    "route": "155"
  },
  {
    "name": "Bus 155 / Devon & Kedzie Terminal",
    "lng": -87.70953453,
    "lat": 41.99779641,
    "type": "bus",
    "route": "155"
  },
  {
    "name": "Bus 155 / Devon & Western",
    "lng": -87.68967571,
    "lat": 41.99781048,
    "type": "bus",
    "route": "155"
  },
  {
    "name": "Bus 155 / Devon & Damen",
    "lng": -87.67972789,
    "lat": 41.99784695,
    "type": "bus",
    "route": "155"
  },
  {
    "name": "Bus 155 / Devon & Oakley",
    "lng": -87.68736205,
    "lat": 41.99787556,
    "type": "bus",
    "route": "155"
  },
  {
    "name": "Bus 155 / Devon & Ridge",
    "lng": -87.6765643,
    "lat": 41.99790266,
    "type": "bus",
    "route": "155"
  },
  {
    "name": "Bus 155 / Devon & Clark",
    "lng": -87.67021778,
    "lat": 41.99801979,
    "type": "bus",
    "route": "155"
  },
  {
    "name": "Bus 155 / Devon & Ridge",
    "lng": -87.67706727,
    "lat": 41.99803915,
    "type": "bus",
    "route": "155"
  },
  {
    "name": "Bus 155 / Devon & Greenview",
    "lng": -87.66803552,
    "lat": 41.99804699,
    "type": "bus",
    "route": "155"
  },
  {
    "name": "Bus 155 / Devon & Magnolia",
    "lng": -87.66161852,
    "lat": 41.99810999,
    "type": "bus",
    "route": "155"
  },
  {
    "name": "Bus 155 / Devon & Clark",
    "lng": -87.67037701,
    "lat": 41.99815579,
    "type": "bus",
    "route": "155"
  },
  {
    "name": "Bus 155 / Devon & Lakewood",
    "lng": -87.66292745,
    "lat": 41.99824676,
    "type": "bus",
    "route": "155"
  },
  {
    "name": "Bus 155 / Sheridan & North Shore",
    "lng": -87.66092516,
    "lat": 42.00334945,
    "type": "bus",
    "route": "155"
  },
  {
    "name": "Bus 155 / Pratt & Ashland",
    "lng": -87.66975299,
    "lat": 42.00545373,
    "type": "bus",
    "route": "155"
  },
  {
    "name": "Bus 155 / Pratt & Sheridan",
    "lng": -87.66119519,
    "lat": 42.0056343,
    "type": "bus",
    "route": "155"
  },
  {
    "name": "Bus 155 / Ashland & Farwell",
    "lng": -87.66991976,
    "lat": 42.00651875,
    "type": "bus",
    "route": "155"
  },
  {
    "name": "Bus 155 / Morse & Lakewood",
    "lng": -87.66380288,
    "lat": 42.00788431,
    "type": "bus",
    "route": "155"
  },
  {
    "name": "Bus 157 / Ogden & Springfield",
    "lng": -87.72238214,
    "lat": 41.8517927,
    "type": "bus",
    "route": "157"
  },
  {
    "name": "Bus 157 / Ogden & Central Park",
    "lng": -87.71524604,
    "lat": 41.85426708,
    "type": "bus",
    "route": "157"
  },
  {
    "name": "Bus 157 / Ogden & Spaulding",
    "lng": -87.70787803,
    "lat": 41.85690673,
    "type": "bus",
    "route": "157"
  },
  {
    "name": "Bus 157 / Ogden & Sacramento",
    "lng": -87.70113692,
    "lat": 41.8592191,
    "type": "bus",
    "route": "157"
  },
  {
    "name": "Bus 157 / Ogden & Washtenaw",
    "lng": -87.69311772,
    "lat": 41.86208557,
    "type": "bus",
    "route": "157"
  },
  {
    "name": "Bus 157 / Western & Roosevelt",
    "lng": -87.6861623,
    "lat": 41.86630403,
    "type": "bus",
    "route": "157"
  },
  {
    "name": "Bus 157 / Taylor & Paulina",
    "lng": -87.6684578,
    "lat": 41.86916344,
    "type": "bus",
    "route": "157"
  },
  {
    "name": "Bus 157 / Ogden & Taylor",
    "lng": -87.68090171,
    "lat": 41.86916723,
    "type": "bus",
    "route": "157"
  },
  {
    "name": "Bus 157 / Taylor & Ashland",
    "lng": -87.66574737,
    "lat": 41.86919727,
    "type": "bus",
    "route": "157"
  },
  {
    "name": "Bus 157 / Taylor & Throop",
    "lng": -87.65929941,
    "lat": 41.8693221,
    "type": "bus",
    "route": "157"
  },
  {
    "name": "Bus 157 / Taylor & Ashland",
    "lng": -87.6667838,
    "lat": 41.8693353,
    "type": "bus",
    "route": "157"
  },
  {
    "name": "Bus 157 / Taylor & Racine",
    "lng": -87.65661859,
    "lat": 41.86938246,
    "type": "bus",
    "route": "157"
  },
  {
    "name": "Bus 157 / Ogden & Taylor",
    "lng": -87.68030481,
    "lat": 41.86939353,
    "type": "bus",
    "route": "157"
  },
  {
    "name": "Bus 157 / Taylor & Aberdeen",
    "lng": -87.65438074,
    "lat": 41.86940249,
    "type": "bus",
    "route": "157"
  },
  {
    "name": "Bus 157 / Taylor & Loomis",
    "lng": -87.66149894,
    "lat": 41.86940473,
    "type": "bus",
    "route": "157"
  },
  {
    "name": "Bus 157 / Taylor & Morgan",
    "lng": -87.65056226,
    "lat": 41.86944489,
    "type": "bus",
    "route": "157"
  },
  {
    "name": "Bus 157 / Taylor & Throop",
    "lng": -87.65915128,
    "lat": 41.86944928,
    "type": "bus",
    "route": "157"
  },
  {
    "name": "Bus 157 / 900 W Taylor",
    "lng": -87.64875975,
    "lat": 41.86949185,
    "type": "bus",
    "route": "157"
  },
  {
    "name": "Bus 157 / Taylor & Jefferson",
    "lng": -87.64270113,
    "lat": 41.86979447,
    "type": "bus",
    "route": "157"
  },
  {
    "name": "Bus 157 / 2102 W Ogden",
    "lng": -87.67890476,
    "lat": 41.87055085,
    "type": "bus",
    "route": "157"
  },
  {
    "name": "Bus 157 / Polk & Wood",
    "lng": -87.67159876,
    "lat": 41.87147485,
    "type": "bus",
    "route": "157"
  },
  {
    "name": "Bus 157 / Clinton & Polk",
    "lng": -87.64096475,
    "lat": 41.87176785,
    "type": "bus",
    "route": "157"
  },
  {
    "name": "Bus 157 / Jefferson & Van Buren",
    "lng": -87.64242129,
    "lat": 41.87691184,
    "type": "bus",
    "route": "157"
  },
  {
    "name": "Bus 157 / Clinton & Madison",
    "lng": -87.64128562,
    "lat": 41.88174698,
    "type": "bus",
    "route": "157"
  },
  {
    "name": "Bus 157 / Madison & LaSalle",
    "lng": -87.63265794,
    "lat": 41.88201942,
    "type": "bus",
    "route": "157"
  },
  {
    "name": "Bus 157 / Madison & Wabash",
    "lng": -87.62597875,
    "lat": 41.88214785,
    "type": "bus",
    "route": "157"
  },
  {
    "name": "Bus 157 / Jefferson & Washington",
    "lng": -87.64261549,
    "lat": 41.88307296,
    "type": "bus",
    "route": "157"
  },
  {
    "name": "Bus 157 / Washington & Franklin",
    "lng": -87.63552175,
    "lat": 41.88313585,
    "type": "bus",
    "route": "157"
  },
  {
    "name": "Bus 157 / Washington & State",
    "lng": -87.6275027,
    "lat": 41.88317743,
    "type": "bus",
    "route": "157"
  },
  {
    "name": "Bus 157 / Michigan & E. Wacker",
    "lng": -87.62443075,
    "lat": 41.88808386,
    "type": "bus",
    "route": "157"
  },
  {
    "name": "Bus 157 / Ohio & St. Clair",
    "lng": -87.62285875,
    "lat": 41.89250686,
    "type": "bus",
    "route": "157"
  },
  {
    "name": "Bus 157 / Chicago & Fairbanks",
    "lng": -87.62053575,
    "lat": 41.89672386,
    "type": "bus",
    "route": "157"
  },
  {
    "name": "Bus 172 / 60th Street & Ellis",
    "lng": -87.60089544,
    "lat": 41.78589605,
    "type": "bus",
    "route": "172"
  },
  {
    "name": "Bus 172 / 60th Street & Kenwood",
    "lng": -87.59324202,
    "lat": 41.7860584,
    "type": "bus",
    "route": "172"
  },
  {
    "name": "Bus 172 / Ellis & Midway Plaisance ",
    "lng": -87.60130831,
    "lat": 41.7873842,
    "type": "bus",
    "route": "172"
  },
  {
    "name": "Bus 172 / 59th Street & Kimbark",
    "lng": -87.59450636,
    "lat": 41.78787922,
    "type": "bus",
    "route": "172"
  },
  {
    "name": "Bus 172 / 5800 S Ellis",
    "lng": -87.60132429,
    "lat": 41.78941611,
    "type": "bus",
    "route": "172"
  },
  {
    "name": "Bus 172 / Ellis & 55th Street",
    "lng": -87.60150273,
    "lat": 41.79471784,
    "type": "bus",
    "route": "172"
  },
  {
    "name": "Bus 172 / Ellis & 53rd Street",
    "lng": -87.60134159,
    "lat": 41.79937599,
    "type": "bus",
    "route": "172"
  },
  {
    "name": "Bus 172 / Woodlawn & Hyde Park Blvd",
    "lng": -87.59665334,
    "lat": 41.80225803,
    "type": "bus",
    "route": "172"
  },
  {
    "name": "Bus 172 / E Hyde Park & Blackstone",
    "lng": -87.59017165,
    "lat": 41.8023947,
    "type": "bus",
    "route": "172"
  },
  {
    "name": "Bus 172 / E Hyde Park & Lake Shore Drive",
    "lng": -87.58400631,
    "lat": 41.80259104,
    "type": "bus",
    "route": "172"
  },
  {
    "name": "Bus 2 / 60th Street & Cottage Grove",
    "lng": -87.60556218,
    "lat": 41.7858486,
    "type": "bus",
    "route": "2"
  },
  {
    "name": "Bus 2 / 1111 East 60th Street",
    "lng": -87.5995088,
    "lat": 41.78590627,
    "type": "bus",
    "route": "2"
  },
  {
    "name": "Bus 2 / 60th Street & Cottage Grove",
    "lng": -87.60592066,
    "lat": 41.78593871,
    "type": "bus",
    "route": "2"
  },
  {
    "name": "Bus 2 / 60th Street & Woodlawn",
    "lng": -87.59645483,
    "lat": 41.78595865,
    "type": "bus",
    "route": "2"
  },
  {
    "name": "Bus 2 / 60th Street & Stony Island",
    "lng": -87.58716503,
    "lat": 41.78618317,
    "type": "bus",
    "route": "2"
  },
  {
    "name": "Bus 2 / Midway Plaisance & Cottage Grove",
    "lng": -87.60625913,
    "lat": 41.78636711,
    "type": "bus",
    "route": "2"
  },
  {
    "name": "Bus 2 / Stony Island & 59th Street",
    "lng": -87.58672073,
    "lat": 41.78806584,
    "type": "bus",
    "route": "2"
  },
  {
    "name": "Bus 2 / Cottage Grove & 58th Street",
    "lng": -87.60602907,
    "lat": 41.78940641,
    "type": "bus",
    "route": "2"
  },
  {
    "name": "Bus 2 / 5800 S Stony Island",
    "lng": -87.58658073,
    "lat": 41.78962784,
    "type": "bus",
    "route": "2"
  },
  {
    "name": "Bus 2 / Cottage Grove & 58th Street",
    "lng": -87.6062439,
    "lat": 41.78968916,
    "type": "bus",
    "route": "2"
  },